timestamp,location_x,location_y,location_z,velocity_x,velocity_y,velocity_z,acceleration_x,acceleration_y,acceleration_z,angular_velocity_x,angular_velocity_y,angular_velocity_z,rotation_pitch,rotation_yaw,rotation_roll,control_throttle,control_steer,control_brake,control_hand_brake,control_reverse,control_manual_gear_shift,control_gear
16799433.8567769,-85.14678192138672,-103.28252410888672,-0.4418574571609497,1.5781132560732658e-06,5.8867928601102903e-05,0.0005768421688117087,1.6653575585223734e-05,0.0006083959597162902,0.026095863431692123,-0.0002212666004197672,-0.001149517484009266,-0.00031470414251089096,-1.311491847038269,89.84335327148438,-0.0004577425424940884,0.699999988079071,1.09446057194873e-06,0.0,False,False,False,0
16799433.8949782,-85.14678192138672,-103.28252410888672,-0.44187048077583313,1.0382872233094531e-06,4.13310517615173e-05,2.2511625502374955e-05,-1.4297035704657901e-05,-0.0004644558357540518,-0.014681180007755756,-0.0004201881238259375,-0.0016834140988066792,-0.0003177780890837312,-1.311491847038269,89.84335327148438,-0.0004577425424940884,0.699999988079071,1.1030435871361988e-06,0.0,False,False,False,0
16799434.0794377,-85.14678192138672,-103.28252410888672,-0.4418395161628723,9.61097498475283e-07,6.017878695274703e-05,0.000810345693025738,-1.6765324062362197e-06,0.0004093658644706011,0.017111465334892273,-0.0004354574775788933,-0.0013430914841592312,-0.00032393186120316386,-1.311491847038269,89.84335327148438,-0.0004577425424940884,0.699999988079071,1.111388314711803e-06,0.0,False,False,False,0
16799434.0838556,-85.14678192138672,-103.28252410888672,-0.44180071353912354,1.5292496300389757e-06,5.400523514254019e-05,0.0006725233397446573,4.0155018723453395e-06,-4.3632517190417275e-05,-0.0009740804671309888,-4.338987491792068e-05,-0.00047870154958218336,-0.00034767959732562304,-1.311491847038269,89.84335327148438,-0.0004577425424940884,0.699999988079071,1.1324880233587464e-06,0.0,False,False,False,0
16799434.1005357,-85.14678192138672,-103.28252410888672,-0.4417784512042999,1.2230360653120442e-06,6.579414184670895e-05,0.0011236283462494612,-1.5936671843519434e-05,0.000613545416854322,0.023477446287870407,-0.0002577322884462774,-0.0006555455038323998,-0.0003422197187319398,-1.311491847038269,89.84335327148438,-0.0004577425424940884,0.699999988079071,1.1327264246574487e-06,0.0,False,False,False,0
16799434.1089628,-85.14678192138672,-103.28252410888672,-0.44175827503204346,2.0052075342391618e-06,9.793281060410663e-05,0.0023715614806860685,9.191959543386474e-05,0.003776887198910117,0.14665518701076508,0.0002169627114199102,0.00011805018584709615,-0.0003502210893202573,-1.311491847038269,89.84335327148438,-0.0004577425424940884,0.699999988079071,1.1329648259561509e-06,0.0,False,False,False,0
16799434.1303213,-85.14678192138672,-103.28252410888672,-0.44168806076049805,1.309678737015929e-06,0.00011954128422075883,0.0030148790683597326,-3.3082142181228846e-05,0.0010277857072651386,0.03059876710176468,0.00022460269974544644,-0.00035997910890728235,-0.00030199202592484653,-1.311491847038269,89.84335327148438,-0.0004577425424940884,0.699999988079071,1.1359450127201853e-06,0.0,False,False,False,0
16799434.1539113,-85.14678192138672,-103.28252410888672,-0.4416477382183075,1.254592234545271e-06,8.175611583283171e-05,0.001529623637907207,-2.3399643396260217e-06,-0.0016050382982939482,-0.06309067457914352,9.186508395941928e-05,-0.0003953943960368633,-0.0003255210758652538,-1.311491847038269,89.84335327148438,-0.0004577425424940884,0.699999988079071,1.1397596608730964e-06,0.0,False,False,False,0
16799434.1945725,-85.14678192138672,-103.28252410888672,-0.4416090250015259,1.2610671547008678e-06,6.351545016514137e-05,0.0007576968637295067,1.614946967265496e-07,-0.0004549509030766785,-0.019253069534897804,-0.00012099635205231607,-0.00037912940024398267,-0.00032963065314106643,-1.311491847038269,89.84335327148438,-0.0004577425424940884,0.699999988079071,1.1420246437410242e-06,0.0,False,False,False,0
16799434.1945725,-85.14678192138672,-103.28252410888672,-0.4416090250015259,1.2610671547008678e-06,6.351545016514137e-05,0.0007576968637295067,1.614946967265496e-07,-0.0004549509030766785,-0.019253069534897804,-0.00012099635205231607,-0.00037912940024398267,-0.00032963065314106643,-1.311491847038269,89.84335327148438,-0.0004577425424940884,0.699999988079071,1.1420246437410242e-06,0.0,False,False,False,0
16799434.37218,-85.14678192138672,-103.28252410888672,-0.4415905773639679,1.307657726101752e-06,8.751153654884547e-05,0.0016180507373064756,6.472326731454814e-06,0.0024722949601709843,0.08974795788526535,8.998890552902594e-05,-0.0002472373016644269,-0.000306109432131052,-1.311491847038269,89.84335327148438,-0.0004577425424940884,0.699999988079071,1.1517996654220042e-06,0.0,False,False,False,0
16799434.3760801,-85.14678192138672,-103.28252410888672,-0.44168010354042053,1.0341958613935276e-06,0.00019327372137922794,0.005572225898504257,-8.168918429873884e-05,0.0430157408118248,1.5622854232788086,0.00039459639810957015,2.6553589123068377e-05,-0.00012526407954283059,-1.311491847038269,89.84335327148438,-0.0004577425424940884,0.699999988079071,1.1726609727702453e-06,0.0,False,False,False,0
16799434.377399,-85.14678192138672,-103.28252410888672,-0.4416593015193939,1.0341958613935276e-06,0.00019327372137922794,0.005572225898504257,-8.168918429873884e-05,0.0430157408118248,1.5622854232788086,0.00039459639810957015,2.6553589123068377e-05,-0.00012526407954283059,-1.311491847038269,89.84335327148438,-0.0004577425424940884,0.699999988079071,1.1726609727702453e-06,0.0,False,False,False,0
16799434.3889763,-85.14678192138672,-103.28252410888672,-0.4416159689426422,1.225688606609765e-06,0.00014320849732030183,0.003713277168571949,1.7160846255137585e-05,-0.004486653488129377,-0.1665918529033661,0.00018198342877440155,-8.317946048919111e-05,-0.00023580712149851024,-1.311491847038269,89.84335327148438,-0.0004577425424940884,0.699999988079071,1.1738529792637564e-06,0.0,False,False,False,0
16799434.4152339,-85.14678192138672,-103.28252410888672,-0.4416040778160095,1.354740788883646e-06,5.2621810027631e-05,0.0003986253868788481,4.9829986892291345e-06,-0.003497758414596319,-0.12798625230789185,6.152380956336856e-05,-0.00015378586249426007,-0.00034508705721236765,-1.311491847038269,89.84335327148438,-0.0004577425424940884,0.699999988079071,1.1790981488957186e-06,0.0,False,False,False,0
16799434.4400857,-85.14678192138672,-103.28252410888672,-0.44158831238746643,1.4301866713140043e-06,5.73831785004586e-05,0.0005457233637571335,3.0326589239848545e-06,0.00019139025243930519,0.0059128208085894585,4.9736063374439254e-05,-3.005240432685241e-05,-0.0003428224881645292,-1.311491847038269,89.84335327148438,-0.0004577425424940884,0.699999988079071,1.1836280009447364e-06,0.0,False,False,False,0
16799434.4739538,-85.14678192138672,-103.28252410888672,-0.44157981872558594,1.2537993825390004e-06,4.875645026913844e-05,0.0001915989414555952,-5.228955160418991e-06,-0.00025573710445314646,-0.0104979258030653,-1.3658918760484084e-05,-0.00016729187336750329,-0.00034194710315205157,-1.311491847038269,89.84335327148438,-0.0004577425424940884,0.699999988079071,1.1901844345629797e-06,0.0,False,False,False,0
16799434.5018716,-85.14678192138672,-103.28252410888672,-0.44160154461860657,1.2444885442164377e-06,2.5767236365936697e-05,-0.0006618227926082909,-3.3217165196219867e-07,-0.0008201586897484958,-0.030446507036685944,-3.463932080194354e-05,-5.777942351414822e-05,-0.0003544338105712086,-1.311491847038269,89.84335327148438,-0.0004577425424940884,0.699999988079071,1.195191089209402e-06,0.0,False,False,False,0
16799434.5358187,-85.14678192138672,-103.28252410888672,-0.44158846139907837,1.4673289570055204e-06,5.130842328071594e-05,0.0003061750903725624,6.595546437893063e-06,0.0007559583755210042,0.02865043468773365,6.236549552340875e-07,-2.245136329293018e-06,-0.0003459696308709681,-1.311491847038269,89.84335327148438,-0.0004577425424940884,0.699999988079071,1.2006746601400664e-06,0.0,False,False,False,0
16799434.6888623,-85.14678192138672,-103.28252410888672,-0.4415801763534546,1.2929888271173695e-06,4.884734516963363e-05,0.0001889374980237335,-5.186656380828936e-06,-7.321760494960472e-05,-0.003487843554466963,-5.2650484576588497e-05,-0.00013699171540793031,-0.000342166778864339,-1.311491847038269,89.84335327148438,-0.0004577425424940884,0.699999988079071,1.2069926924596075e-06,0.0,False,False,False,0
16799434.692819,-85.14678192138672,-103.28252410888672,-0.44166871905326843,1.4258524743127055e-06,3.2016188924899325e-05,-0.0002880157553590834,1.0905748695222428e-06,-0.0001381539332214743,-0.003914940170943737,1.8218561308458447e-05,0.00015574756253045052,-0.0003622167569119483,-1.311491847038269,89.84335327148438,-0.0004577425424940884,0.699999988079071,1.2297616649448173e-06,0.0,False,False,False,0
16799434.6942115,-85.14678192138672,-103.28252410888672,-0.4416477084159851,9.630183512854273e-07,0.00019097395124845207,0.0054883877746760845,-0.00012080021406291053,0.041488148272037506,1.5076476335525513,0.00038434716407209635,1.339104801445501e-05,-0.00013201833644416183,-1.311491847038269,89.84335327148438,-0.0004577425424940884,0.699999988079071,1.2297616649448173e-06,0.0,False,False,False,0
16799434.7039821,-85.14678192138672,-103.28252410888672,-0.4416361153125763,1.4029704971108004e-06,7.649138569831848e-05,0.0013772264355793595,5.224651613389142e-05,-0.01359537709504366,-0.4882209599018097,0.00015425370656885207,0.000102871039416641,-0.0003289027663413435,-1.311491847038269,89.84335327148438,-0.0004577425424940884,0.699999988079071,1.2298808087507496e-06,0.0,False,False,False,0
16799434.724575,-85.14678192138672,-103.28252410888672,-0.4415874481201172,1.4200296618582797e-06,9.642466466175392e-05,0.0020212242379784584,7.999983040463121e-07,0.0009347813902422786,0.03020060807466507,0.00012629387492779642,1.9151191736455075e-05,-0.000314133707433939,-1.311491847038269,89.84335327148438,-0.0004577425424940884,0.699999988079071,1.2328612228884595e-06,0.0,False,False,False,0
16799434.7558051,-85.14678192138672,-103.28252410888672,-0.4415566921234131,1.3316445119926357e-06,6.570368714164943e-05,0.0007952969172038138,-2.871241804314195e-06,-0.0009979883907362819,-0.0398249477148056,3.6900695704389364e-05,4.6889440454833675e-06,-0.00033107298077084124,-1.311491847038269,89.84335327148438,-0.0004577425424940884,0.699999988079071,1.238464392372407e-06,0.0,False,False,False,0
16799434.7794767,-85.14678192138672,-103.28252410888672,-0.4415501356124878,1.3384534440774587e-06,5.1028579036938027e-05,0.00021774684137199074,2.824088198849495e-07,-0.0006086681387387216,-0.023954598233103752,-1.5899448044365272e-05,-0.00011005694977939129,-0.00033617138979025185,-1.311491847038269,89.84335327148438,-0.0004577425424940884,0.699999988079071,1.2422793815858313e-06,0.0,False,False,False,0
16799434.8207641,-85.14678192138672,-103.28252410888672,-0.4415501356124878,1.2821390100725694e-06,4.433333742781542e-05,-4.877119863522239e-05,-1.3781648249278078e-06,-0.00016385047638323158,-0.006522409152239561,1.4086638657317962e-05,-4.86451608594507e-05,-0.0003402168513275683,-1.311491847038269,89.84335327148438,-0.0004577425424940884,0.699999988079071,1.2507437077147188e-06,0.0,False,False,False,0
16799434.9569998,-85.14678192138672,-103.28252410888672,-0.44155433773994446,1.3109971632729867e-06,4.122734026168473e-05,-0.00016548720304854214,1.1620749091889593e-06,-0.00012507388601079583,-0.004699979908764362,7.915748938103206e-06,-5.759026316809468e-05,-0.00034191497252322733,-1.311491847038269,89.84335327148438,-0.0004577425424940884,0.699999988079071,1.2553931583170197e-06,0.0,False,False,False,0
16799434.9609329,-85.14678192138672,-103.28252410888672,-0.441667765378952,1.1851411727548111e-06,2.9506980354199186e-05,-0.00039724985253997147,-1.1045192422898253e-06,-0.00010285853932145983,-0.002033962169662118,4.410190740600228e-05,5.644049906550208e-06,-0.0003587360552046448,-1.311491847038269,89.84335327148438,-0.0004577425424940884,0.699999988079071,1.27804435123835e-06,0.0,False,False,False,0
16799434.962265,-85.14678192138672,-103.28252410888672,-0.44164732098579407,1.1256121297265054e-06,0.0001895918685477227,0.00541899586096406,-1.5770119716762565e-05,0.04240884631872177,1.5408092737197876,0.00041245101601816714,0.00021731066226493567,-0.000132726549054496,-1.311491847038269,89.84335327148438,-0.0004577425424940884,0.699999988079071,1.27804435123835e-06,0.0,False,False,False,0
16799434.9692026,-85.14678192138672,-103.28252410888672,-0.44162750244140625,1.2581297141878167e-06,0.000118798459880054,0.0029105269350111485,1.9446981241344474e-05,-0.01038894709199667,-0.3681183159351349,0.00015361650730483234,6.006880721542984e-05,-0.00028729112818837166,-1.311491847038269,89.84335327148438,-0.0004577425424940884,0.699999988079071,1.27804435123835e-06,0.0,False,False,False,0
16799434.986778,-85.14678192138672,-103.28252410888672,-0.4416147470474243,1.3208180007495685e-06,5.94453485973645e-05,0.0006930103991180658,3.642931233116542e-06,-0.003449117997661233,-0.12886394560337067,0.00010144439875148237,-4.5889581087976694e-05,-0.00034675622009672225,-1.311491847038269,89.84335327148438,-0.0004577425424940884,0.699999988079071,1.2804287052858854e-06,0.0,False,False,False,0
16799435.0217788,-85.14678192138672,-103.28252410888672,-0.44159701466560364,1.2658832702072687e-06,5.3161529649514705e-05,0.00041214405791833997,-1.599921120032377e-06,-0.00018301016825716943,-0.008179961703717709,1.6451607734779827e-05,-5.496304220287129e-05,-0.00034674190101213753,-1.311491847038269,89.84335327148438,-0.0004577425424940884,0.699999988079071,1.2878200550403562e-06,0.0,False,False,False,0
16799435.057511,-85.14678192138672,-103.28252410888672,-0.4415997862815857,1.3544969306167332e-06,4.078522397321649e-05,-6.393259536707774e-05,2.4679347916389816e-06,-0.00034468629746697843,-0.013258973136544228,-3.364880831213668e-05,3.791738345171325e-05,-0.0003535634605214,-1.311491847038269,89.84335327148438,-0.0004577425424940884,0.699999988079071,1.2950922609888949e-06,0.0,False,False,False,0
16799435.0847272,-85.14678192138672,-103.28252410888672,-0.44160521030426025,1.326195729234314e-06,3.78309196094051e-05,-0.0001681781723164022,-1.0341661891288823e-06,-0.00010795448906719685,-0.0038092818576842546,3.0453204544755863e-06,-6.942125764908269e-05,-0.0003524739877320826,-1.311491847038269,89.84335327148438,-0.0004577425424940884,0.699999988079071,1.300337885368208e-06,0.0,False,False,False,0
16799435.1199003,-85.14678192138672,-103.28252410888672,-0.44159865379333496,1.4223174957805895e-06,4.6234577894210815e-05,0.00014775035378988832,2.7301116460876074e-06,0.0002386860578553751,0.008973203599452972,4.682706276071258e-05,2.481060437276028e-05,-0.00035139400279149413,-1.311491847038269,89.84335327148438,-0.0004577425424940884,0.699999988079071,1.3060601986580878e-06,0.0,False,False,False,0
16799435.2686538,-85.14678192138672,-103.28252410888672,-0.4415716826915741,1.440500113858434e-06,6.170704727992415e-05,0.0006732339388690889,5.698022391698032e-07,0.0004848723183386028,0.016467470675706863,-2.8928459869348444e-05,1.6382376998080872e-05,-0.0003378376131877303,-1.311491847038269,89.84335327148438,-0.0004577425424940884,0.699999988079071,1.3117826256348053e-06,0.0,False,False,False,0
16799435.2728866,-85.14674377441406,-103.26730346679688,-0.44210734963417053,0.0016084164381027222,0.5876915454864502,-0.01374506764113903,0.013473553583025932,4.9269328117370605,-0.12088903039693832,0.5402476191520691,-0.0014780941419303417,-0.00027547538047656417,-1.2950993776321411,89.84320831298828,-0.00045768622658215463,0.699999988079071,1.33514913613908e-06,0.0,False,False,False,0
16799435.2728866,-85.14674377441406,-103.26730346679688,-0.44210734963417053,0.0016084164381027222,0.5876915454864502,-0.01374506764113903,0.013473553583025932,4.9269328117370605,-0.12088903039693832,0.5402476191520691,-0.0014780941419303417,-0.00027547538047656417,-1.2950993776321411,89.84320831298828,-0.00045768622658215463,0.699999988079071,1.33514913613908e-06,0.0,False,False,False,0
16799435.2744335,-85.14673614501953,-103.2646484375,-0.4421588182449341,0.0017554856603965163,0.6416177749633789,-0.009346279315650463,0.03577544167637825,13.117868423461914,1.0700308084487915,0.5263971090316772,-0.0015450604259967804,-0.0002784363168757409,-1.2929342985153198,89.84318542480469,-0.00045773922465741634,0.699999988079071,1.33514913613908e-06,0.0,False,False,False,1
16799435.2992602,-85.14669036865234,-103.24390411376953,-0.4426901638507843,0.002551607321947813,0.9324204325675964,-0.021141275763511658,0.03177906572818756,11.606917381286621,-0.4422459006309509,0.5691782832145691,-0.001687186653725803,-0.000286943803075701,-1.2789528369903564,89.8431625366211,-0.00045773672172799706,0.699999988079071,2.622654733386298e-07,0.0,False,False,False,1
16799436.6393679,-85.13518524169922,-99.04660034179688,-0.5385239720344543,0.013032298535108566,4.761476516723633,-0.10973918437957764,0.002913501113653183,1.07339346408844,-0.07992718368768692,-0.04580463841557503,-7.901906792540103e-05,7.975257176440209e-05,-1.287866234779358,89.84296417236328,-0.00045773829333484173,0.43152952194213867,1.3700803265237482e-06,0.0,False,False,False,1
16799436.6393679,-85.13518524169922,-99.04660034179688,-0.5385239720344543,0.013032298535108566,4.761476516723633,-0.10973918437957764,0.002913501113653183,1.07339346408844,-0.07992718368768692,-0.04580463841557503,-7.901906792540103e-05,7.975257176440209e-05,-1.287866234779358,89.84296417236328,-0.00045773829333484173,0.43152952194213867,1.3700803265237482e-06,0.0,False,False,False,1
16799436.6393679,-85.13518524169922,-99.04660034179688,-0.5385239720344543,0.013032298535108566,4.761476516723633,-0.10973918437957764,0.002913501113653183,1.07339346408844,-0.07992718368768692,-0.04580463841557503,-7.901906792540103e-05,7.975257176440209e-05,-1.287866234779358,89.84296417236328,-0.00045773829333484173,0.43152952194213867,1.3700803265237482e-06,0.0,False,False,False,1
16799436.6393679,-85.13518524169922,-99.04660034179688,-0.5385239720344543,0.013032298535108566,4.761476516723633,-0.10973918437957764,0.002913501113653183,1.07339346408844,-0.07992718368768692,-0.04580463841557503,-7.901906792540103e-05,7.975257176440209e-05,-1.287866234779358,89.84296417236328,-0.00045773829333484173,0.43152952194213867,1.3700803265237482e-06,0.0,False,False,False,1
16799436.6393679,-85.13518524169922,-99.04660034179688,-0.5385239720344543,0.013032298535108566,4.761476516723633,-0.10973918437957764,0.002913501113653183,1.07339346408844,-0.07992718368768692,-0.04580463841557503,-7.901906792540103e-05,7.975257176440209e-05,-1.287866234779358,89.84296417236328,-0.00045773829333484173,0.43152952194213867,1.3700803265237482e-06,0.0,False,False,False,1
16799436.6393679,-85.13518524169922,-99.04660034179688,-0.5385239720344543,0.013032298535108566,4.761476516723633,-0.10973918437957764,0.002913501113653183,1.07339346408844,-0.07992718368768692,-0.04580463841557503,-7.901906792540103e-05,7.975257176440209e-05,-1.287866234779358,89.84296417236328,-0.00045773829333484173,0.43152952194213867,1.3700803265237482e-06,0.0,False,False,False,1
16799436.6393679,-85.13518524169922,-99.04660034179688,-0.5385239720344543,0.013032298535108566,4.761476516723633,-0.10973918437957764,0.002913501113653183,1.07339346408844,-0.07992718368768692,-0.04580463841557503,-7.901906792540103e-05,7.975257176440209e-05,-1.287866234779358,89.84296417236328,-0.00045773829333484173,0.43152952194213867,1.3700803265237482e-06,0.0,False,False,False,1
16799436.6393679,-85.13518524169922,-99.04660034179688,-0.5385239720344543,0.013032298535108566,4.761476516723633,-0.10973918437957764,0.002913501113653183,1.07339346408844,-0.07992718368768692,-0.04580463841557503,-7.901906792540103e-05,7.975257176440209e-05,-1.287866234779358,89.84296417236328,-0.00045773829333484173,0.43152952194213867,1.3700803265237482e-06,0.0,False,False,False,1
16799436.6393679,-85.13518524169922,-99.04660034179688,-0.5385239720344543,0.013032298535108566,4.761476516723633,-0.10973918437957764,0.002913501113653183,1.07339346408844,-0.07992718368768692,-0.04580463841557503,-7.901906792540103e-05,7.975257176440209e-05,-1.287866234779358,89.84296417236328,-0.00045773829333484173,0.43152952194213867,1.3700803265237482e-06,0.0,False,False,False,1
16799436.6393679,-85.13518524169922,-99.04660034179688,-0.5385239720344543,0.013032298535108566,4.761476516723633,-0.10973918437957764,0.002913501113653183,1.07339346408844,-0.07992718368768692,-0.04580463841557503,-7.901906792540103e-05,7.975257176440209e-05,-1.287866234779358,89.84296417236328,-0.00045773829333484173,0.43152952194213867,1.3700803265237482e-06,0.0,False,False,False,1
16799436.6393679,-85.13518524169922,-99.04660034179688,-0.5385239720344543,0.013032298535108566,4.761476516723633,-0.10973918437957764,0.002913501113653183,1.07339346408844,-0.07992718368768692,-0.04580463841557503,-7.901906792540103e-05,7.975257176440209e-05,-1.287866234779358,89.84296417236328,-0.00045773829333484173,0.43152952194213867,1.3700803265237482e-06,0.0,False,False,False,1
16799436.6393679,-85.13518524169922,-99.04660034179688,-0.5385239720344543,0.013032298535108566,4.761476516723633,-0.10973918437957764,0.002913501113653183,1.07339346408844,-0.07992718368768692,-0.04580463841557503,-7.901906792540103e-05,7.975257176440209e-05,-1.287866234779358,89.84296417236328,-0.00045773829333484173,0.43152952194213867,1.3700803265237482e-06,0.0,False,False,False,1
16799436.6393679,-85.13518524169922,-99.04660034179688,-0.5385239720344543,0.013032298535108566,4.761476516723633,-0.10973918437957764,0.002913501113653183,1.07339346408844,-0.07992718368768692,-0.04580463841557503,-7.901906792540103e-05,7.975257176440209e-05,-1.287866234779358,89.84296417236328,-0.00045773829333484173,0.43152952194213867,1.3700803265237482e-06,0.0,False,False,False,1
16799436.6393679,-85.13518524169922,-99.04660034179688,-0.5385239720344543,0.013032298535108566,4.761476516723633,-0.10973918437957764,0.002913501113653183,1.07339346408844,-0.07992718368768692,-0.04580463841557503,-7.901906792540103e-05,7.975257176440209e-05,-1.287866234779358,89.84296417236328,-0.00045773829333484173,0.43152952194213867,1.3700803265237482e-06,0.0,False,False,False,1
16799436.6393679,-85.13518524169922,-99.04660034179688,-0.5385239720344543,0.013032298535108566,4.761476516723633,-0.10973918437957764,0.002913501113653183,1.07339346408844,-0.07992718368768692,-0.04580463841557503,-7.901906792540103e-05,7.975257176440209e-05,-1.287866234779358,89.84296417236328,-0.00045773829333484173,0.43152952194213867,1.3700803265237482e-06,0.0,False,False,False,1
16799436.6393679,-85.13518524169922,-99.04660034179688,-0.5385239720344543,0.013032298535108566,4.761476516723633,-0.10973918437957764,0.002913501113653183,1.07339346408844,-0.07992718368768692,-0.04580463841557503,-7.901906792540103e-05,7.975257176440209e-05,-1.287866234779358,89.84296417236328,-0.00045773829333484173,0.43152952194213867,1.3700803265237482e-06,0.0,False,False,False,1
16799436.6393679,-85.13518524169922,-99.04660034179688,-0.5385239720344543,0.013032298535108566,4.761476516723633,-0.10973918437957764,0.002913501113653183,1.07339346408844,-0.07992718368768692,-0.04580463841557503,-7.901906792540103e-05,7.975257176440209e-05,-1.287866234779358,89.84296417236328,-0.00045773829333484173,0.43152952194213867,1.3700803265237482e-06,0.0,False,False,False,1
16799436.6393679,-85.13518524169922,-99.04660034179688,-0.5385239720344543,0.013032298535108566,4.761476516723633,-0.10973918437957764,0.002913501113653183,1.07339346408844,-0.07992718368768692,-0.04580463841557503,-7.901906792540103e-05,7.975257176440209e-05,-1.287866234779358,89.84296417236328,-0.00045773829333484173,0.43152952194213867,1.3700803265237482e-06,0.0,False,False,False,1
16799436.6393679,-85.13518524169922,-99.04660034179688,-0.5385239720344543,0.013032298535108566,4.761476516723633,-0.10973918437957764,0.002913501113653183,1.07339346408844,-0.07992718368768692,-0.04580463841557503,-7.901906792540103e-05,7.975257176440209e-05,-1.287866234779358,89.84296417236328,-0.00045773829333484173,0.43152952194213867,1.3700803265237482e-06,0.0,False,False,False,1
16799436.6393679,-85.13518524169922,-99.04660034179688,-0.5385239720344543,0.013032298535108566,4.761476516723633,-0.10973918437957764,0.002913501113653183,1.07339346408844,-0.07992718368768692,-0.04580463841557503,-7.901906792540103e-05,7.975257176440209e-05,-1.287866234779358,89.84296417236328,-0.00045773829333484173,0.43152952194213867,1.3700803265237482e-06,0.0,False,False,False,1
16799436.6393679,-85.13518524169922,-99.04660034179688,-0.5385239720344543,0.013032298535108566,4.761476516723633,-0.10973918437957764,0.002913501113653183,1.07339346408844,-0.07992718368768692,-0.04580463841557503,-7.901906792540103e-05,7.975257176440209e-05,-1.287866234779358,89.84296417236328,-0.00045773829333484173,0.43152952194213867,1.3700803265237482e-06,0.0,False,False,False,1
16799436.6393679,-85.13518524169922,-99.04660034179688,-0.5385239720344543,0.013032298535108566,4.761476516723633,-0.10973918437957764,0.002913501113653183,1.07339346408844,-0.07992718368768692,-0.04580463841557503,-7.901906792540103e-05,7.975257176440209e-05,-1.287866234779358,89.84296417236328,-0.00045773829333484173,0.43152952194213867,1.3700803265237482e-06,0.0,False,False,False,1
16799436.6393679,-85.13518524169922,-99.04660034179688,-0.5385239720344543,0.013032298535108566,4.761476516723633,-0.10973918437957764,0.002913501113653183,1.07339346408844,-0.07992718368768692,-0.04580463841557503,-7.901906792540103e-05,7.975257176440209e-05,-1.287866234779358,89.84296417236328,-0.00045773829333484173,0.43152952194213867,1.3700803265237482e-06,0.0,False,False,False,1
16799436.6393679,-85.13518524169922,-99.04660034179688,-0.5385239720344543,0.013032298535108566,4.761476516723633,-0.10973918437957764,0.002913501113653183,1.07339346408844,-0.07992718368768692,-0.04580463841557503,-7.901906792540103e-05,7.975257176440209e-05,-1.287866234779358,89.84296417236328,-0.00045773829333484173,0.43152952194213867,1.3700803265237482e-06,0.0,False,False,False,1
16799436.6393679,-85.13518524169922,-99.04660034179688,-0.5385239720344543,0.013032298535108566,4.761476516723633,-0.10973918437957764,0.002913501113653183,1.07339346408844,-0.07992718368768692,-0.04580463841557503,-7.901906792540103e-05,7.975257176440209e-05,-1.287866234779358,89.84296417236328,-0.00045773829333484173,0.43152952194213867,1.3700803265237482e-06,0.0,False,False,False,1
16799436.6393679,-85.13518524169922,-99.04660034179688,-0.5385239720344543,0.013032298535108566,4.761476516723633,-0.10973918437957764,0.002913501113653183,1.07339346408844,-0.07992718368768692,-0.04580463841557503,-7.901906792540103e-05,7.975257176440209e-05,-1.287866234779358,89.84296417236328,-0.00045773829333484173,0.43152952194213867,1.3700803265237482e-06,0.0,False,False,False,1
16799436.6393679,-85.13518524169922,-99.04660034179688,-0.5385239720344543,0.013032298535108566,4.761476516723633,-0.10973918437957764,0.002913501113653183,1.07339346408844,-0.07992718368768692,-0.04580463841557503,-7.901906792540103e-05,7.975257176440209e-05,-1.287866234779358,89.84296417236328,-0.00045773829333484173,0.43152952194213867,1.3700803265237482e-06,0.0,False,False,False,1
16799436.6393679,-85.13518524169922,-99.04660034179688,-0.5385239720344543,0.013032298535108566,4.761476516723633,-0.10973918437957764,0.002913501113653183,1.07339346408844,-0.07992718368768692,-0.04580463841557503,-7.901906792540103e-05,7.975257176440209e-05,-1.287866234779358,89.84296417236328,-0.00045773829333484173,0.43152952194213867,1.3700803265237482e-06,0.0,False,False,False,1
16799436.6393679,-85.13518524169922,-99.04660034179688,-0.5385239720344543,0.013032298535108566,4.761476516723633,-0.10973918437957764,0.002913501113653183,1.07339346408844,-0.07992718368768692,-0.04580463841557503,-7.901906792540103e-05,7.975257176440209e-05,-1.287866234779358,89.84296417236328,-0.00045773829333484173,0.43152952194213867,1.3700803265237482e-06,0.0,False,False,False,1
16799436.6393679,-85.13518524169922,-99.04660034179688,-0.5385239720344543,0.013032298535108566,4.761476516723633,-0.10973918437957764,0.002913501113653183,1.07339346408844,-0.07992718368768692,-0.04580463841557503,-7.901906792540103e-05,7.975257176440209e-05,-1.287866234779358,89.84296417236328,-0.00045773829333484173,0.43152952194213867,1.3700803265237482e-06,0.0,False,False,False,1
16799436.6393679,-85.13518524169922,-99.04660034179688,-0.5385239720344543,0.013032298535108566,4.761476516723633,-0.10973918437957764,0.002913501113653183,1.07339346408844,-0.07992718368768692,-0.04580463841557503,-7.901906792540103e-05,7.975257176440209e-05,-1.287866234779358,89.84296417236328,-0.00045773829333484173,0.43152952194213867,1.3700803265237482e-06,0.0,False,False,False,1
16799436.6393679,-85.13518524169922,-99.04660034179688,-0.5385239720344543,0.013032298535108566,4.761476516723633,-0.10973918437957764,0.002913501113653183,1.07339346408844,-0.07992718368768692,-0.04580463841557503,-7.901906792540103e-05,7.975257176440209e-05,-1.287866234779358,89.84296417236328,-0.00045773829333484173,0.43152952194213867,1.3700803265237482e-06,0.0,False,False,False,1
16799436.6393679,-85.13518524169922,-99.04660034179688,-0.5385239720344543,0.013032298535108566,4.761476516723633,-0.10973918437957764,0.002913501113653183,1.07339346408844,-0.07992718368768692,-0.04580463841557503,-7.901906792540103e-05,7.975257176440209e-05,-1.287866234779358,89.84296417236328,-0.00045773829333484173,0.43152952194213867,1.3700803265237482e-06,0.0,False,False,False,1
16799436.6393679,-85.13518524169922,-99.04660034179688,-0.5385239720344543,0.013032298535108566,4.761476516723633,-0.10973918437957764,0.002913501113653183,1.07339346408844,-0.07992718368768692,-0.04580463841557503,-7.901906792540103e-05,7.975257176440209e-05,-1.287866234779358,89.84296417236328,-0.00045773829333484173,0.43152952194213867,1.3700803265237482e-06,0.0,False,False,False,1
16799436.6393679,-85.13518524169922,-99.04660034179688,-0.5385239720344543,0.013032298535108566,4.761476516723633,-0.10973918437957764,0.002913501113653183,1.07339346408844,-0.07992718368768692,-0.04580463841557503,-7.901906792540103e-05,7.975257176440209e-05,-1.287866234779358,89.84296417236328,-0.00045773829333484173,0.43152952194213867,1.3700803265237482e-06,0.0,False,False,False,1
16799436.6393679,-85.13518524169922,-99.04660034179688,-0.5385239720344543,0.013032298535108566,4.761476516723633,-0.10973918437957764,0.002913501113653183,1.07339346408844,-0.07992718368768692,-0.04580463841557503,-7.901906792540103e-05,7.975257176440209e-05,-1.287866234779358,89.84296417236328,-0.00045773829333484173,0.43152952194213867,1.3700803265237482e-06,0.0,False,False,False,1
16799436.6393679,-85.13518524169922,-99.04660034179688,-0.5385239720344543,0.013032298535108566,4.761476516723633,-0.10973918437957764,0.002913501113653183,1.07339346408844,-0.07992718368768692,-0.04580463841557503,-7.901906792540103e-05,7.975257176440209e-05,-1.287866234779358,89.84296417236328,-0.00045773829333484173,0.43152952194213867,1.3700803265237482e-06,0.0,False,False,False,1
16799436.6393679,-85.13518524169922,-99.04660034179688,-0.5385239720344543,0.013032298535108566,4.761476516723633,-0.10973918437957764,0.002913501113653183,1.07339346408844,-0.07992718368768692,-0.04580463841557503,-7.901906792540103e-05,7.975257176440209e-05,-1.287866234779358,89.84296417236328,-0.00045773829333484173,0.43152952194213867,1.3700803265237482e-06,0.0,False,False,False,1
16799436.6393679,-85.13518524169922,-99.04660034179688,-0.5385239720344543,0.013032298535108566,4.761476516723633,-0.10973918437957764,0.002913501113653183,1.07339346408844,-0.07992718368768692,-0.04580463841557503,-7.901906792540103e-05,7.975257176440209e-05,-1.287866234779358,89.84296417236328,-0.00045773829333484173,0.43152952194213867,1.3700803265237482e-06,0.0,False,False,False,1
16799436.8043384,-85.13480377197266,-98.91116333007812,-0.541619062423706,0.013104069977998734,4.788023948669434,-0.10964448004961014,0.001409471849910915,0.5266881585121155,-0.011087479069828987,-0.04477783292531967,-0.0002539601700846106,0.00012051455269102007,-1.2938904762268066,89.84300231933594,-0.00045773937017656863,0.4170541763305664,1.3951157598057762e-06,0.0,False,False,False,1
16799436.8133907,-85.13337707519531,-98.39583587646484,-0.5533842444419861,0.013313591480255127,4.865864276885986,-0.10754546523094177,0.0018550700042396784,0.6249374747276306,0.5498290657997131,-0.0431647002696991,0.0004184586287010461,5.533236253540963e-05,-1.2941569089889526,89.84298706054688,-0.00045773942838422954,0.2815985679626465,-8.696820259501692e-07,0.0,False,False,False,1
16799436.818051,-85.13331604003906,-98.37310028076172,-0.5538802742958069,0.013321306556463242,4.868630409240723,-0.10647892951965332,0.0016517310868948698,0.5922050476074219,0.22833608090877533,-0.042534034699201584,0.0002628704532980919,5.0402279157424346e-05,-1.2943413257598877,89.84295654296875,-0.00045768608106300235,0.3757138252258301,3.224108695576433e-07,0.0,False,False,False,1
16799436.8401769,-85.13302612304688,-98.26761627197266,-0.5562393069267273,0.013352330774068832,4.880343437194824,-0.10966125875711441,0.0014342480571940541,0.5414927005767822,-0.1471189260482788,-0.04275288060307503,-0.00012558330490719527,6.599150219699368e-05,-1.295256495475769,89.84294891357422,-0.00045773963211104274,0.38034987449645996,8.608191706116486e-07,0.0,False,False,False,1
16799436.8401769,-85.13302612304688,-98.26761627197266,-0.5562393069267273,0.013405700214207172,4.900033473968506,-0.11197637021541595,0.001228682929649949,0.4533083438873291,-0.05329900234937668,-0.04158233851194382,0.00011762561916839331,2.546399446146097e-05,-1.2970869541168213,89.84294128417969,-0.0004576865758281201,0.3763107657432556,3.244369395360991e-07,0.0,False,False,False,1
16799436.9120684,-85.1320571899414,-97.91680145263672,-0.5642574429512024,0.013436407782137394,4.910439491271973,-0.11285536736249924,0.0010893960716202855,0.3691687285900116,-0.031183714047074318,-0.040130823850631714,0.00013769735232926905,2.30956884479383e-05,-1.2982481718063354,89.84293365478516,-0.00045774015597999096,0.36954373121261597,3.244369395360991e-07,0.0,False,False,False,1
16799437.0590412,-85.13155364990234,-97.73062896728516,-0.5685228109359741,0.013467160053551197,4.921855449676514,-0.11288075149059296,0.0008122778381220996,0.3015364110469818,-0.0006704858969897032,-0.03809022158384323,0.00018521962920203805,2.3406675609294325e-05,-1.2997097969055176,89.84294128417969,-0.00045774041791446507,0.3659698963165283,3.244369395360991e-07,0.0,False,False,False,1
16799437.0590412,-85.13155364990234,-97.73062896728516,-0.5685228109359741,0.013467160053551197,4.921855449676514,-0.11288075149059296,0.0008122778381220996,0.3015364110469818,-0.0006704858969897032,-0.03809022158384323,0.00018521962920203805,2.3406675609294325e-05,-1.2997097969055176,89.84294128417969,-0.00045774041791446507,0.3659698963165283,3.244369395360991e-07,0.0,False,False,False,1
16799437.0654278,-85.13011169433594,-97.21387481689453,-0.5803361535072327,0.013524805195629597,4.942925453186035,-0.10786362737417221,0.0004082606465090066,0.17415761947631836,1.1003872156143188,-0.028083577752113342,-0.00037056769360788167,4.382241240818985e-05,-1.3032137155532837,89.84294128417969,-0.0004577944637276232,0.3659698963165283,3.244369395360991e-07,0.0,False,False,False,1
16799437.0678212,-85.13008880615234,-97.2022476196289,-0.5805876851081848,0.013525768183171749,4.943289279937744,-0.10704503953456879,0.0004091730806976557,0.15458986163139343,0.34781768918037415,-0.02722223661839962,-1.8737735445029102e-05,3.597054455894977e-05,-1.3032137155532837,89.84294128417969,-0.0004577944637276232,0.3659698963165283,3.244369395360991e-07,0.0,False,False,False,1
16799437.0875733,-85.12982940673828,-97.1063003540039,-0.5827820301055908,0.01353229209780693,4.945809364318848,-0.11325567215681076,0.00033623396302573383,0.1298818290233612,-0.32008782029151917,-0.027507293969392776,-0.00014379200001712888,3.990497498307377e-05,-1.3037669658660889,89.84293365478516,-0.00045779452193528414,0.35475432872772217,3.244369395360991e-07,0.0,False,False,False,1
16799437.1297145,-85.1292953491211,-96.90286254882812,-0.5873755812644958,0.013545193709433079,4.950090408325195,-0.11222371459007263,0.000313801720039919,0.1041264459490776,0.025099968537688255,-0.024385083466768265,0.00018059926514979452,3.517658115015365e-05,-1.3048051595687866,89.84293365478516,-0.0004576879437081516,0.353843092918396,3.244369395360991e-07,0.0,False,False,False,1
16799437.154294,-85.12894439697266,-96.77845764160156,-0.5902023315429688,0.013550002127885818,4.951929092407227,-0.11273094266653061,0.00019135468755848706,0.07317183911800385,-0.020185530185699463,-0.022637292742729187,0.00022927411191631109,3.543793354765512e-05,-1.305385708808899,89.84294128417969,-0.0004577414656523615,0.3523837924003601,3.244369395360991e-07,0.0,False,False,False,1
16799437.1905444,-85.12847137451172,-96.6015625,-0.5942486524581909,0.01355450227856636,4.953732013702393,-0.11341527849435806,0.0001260041753994301,0.050481777638196945,-0.019161395728588104,-0.020548488944768906,0.00019576332124415785,3.7867739592911676e-05,-1.3061506748199463,89.8429183959961,-0.0004577415529638529,0.3517494797706604,3.244369395360991e-07,0.0,False,False,False,1
16799437.2229936,-85.12804412841797,-96.4400405883789,-0.5979184508323669,0.013557461090385914,4.9547224044799805,-0.11281099915504456,9.07471840037033e-05,0.03037542663514614,0.018533334136009216,-0.01833789236843586,0.000423947349190712,3.311856562504545e-05,-1.3067585229873657,89.8428955078125,-0.0004577416693791747,0.3511262536048889,3.244369395360991e-07,0.0,False,False,False,1
16799437.367812,-85.1276626586914,-96.29768371582031,-0.6012011170387268,0.013559172861278057,4.9551286697387695,-0.11418820917606354,5.957839675829746e-05,0.014140112325549126,-0.04793396219611168,-0.01679028570652008,0.00024252667208202183,3.838301563519053e-05,-1.3072503805160522,89.84288024902344,-0.0004576884093694389,0.35079145431518555,3.244369395360991e-07,0.0,False,False,False,1
16799437.372726,-85.12629699707031,-95.80219268798828,-0.6125827431678772,0.013556077145040035,4.9545440673828125,-0.11342164874076843,-2.59744356299052e-05,-0.004905073903501034,0.0064317830838263035,-0.011437555775046349,5.927290840190835e-05,4.4593783968593925e-05,-1.308623194694519,89.84283447265625,-0.00045774204772897065,0.35079145431518555,3.244369395360991e-07,0.0,False,False,False,1
16799437.372726,-85.12629699707031,-95.80219268798828,-0.6125827431678772,0.013556077145040035,4.9545440673828125,-0.11342164874076843,-2.59744356299052e-05,-0.004905073903501034,0.0064317830838263035,-0.011437555775046349,5.927290840190835e-05,4.4593783968593925e-05,-1.308623194694519,89.84283447265625,-0.00045774204772897065,0.35079145431518555,3.244369395360991e-07,0.0,False,False,False,1
16799437.3767651,-85.12620544433594,-95.76750946044922,-0.6133375763893127,0.01355642732232809,4.954545497894287,-0.10735324025154114,-3.698725049616769e-05,-0.01221772376447916,0.3368910253047943,-0.010425412096083164,-0.00013565692643169314,4.925282337353565e-05,-1.308623194694519,89.84283447265625,-0.00045774204772897065,0.3500410318374634,3.244369395360991e-07,0.0,False,False,False,1
16799437.3767651,-85.12620544433594,-95.76750946044922,-0.6133375763893127,0.01355642732232809,4.954545497894287,-0.10735324025154114,-3.698725049616769e-05,-0.01221772376447916,0.3368910253047943,-0.010425412096083164,-0.00013565692643169314,4.925282337353565e-05,-1.308623194694519,89.84283447265625,-0.00045774204772897065,0.3500410318374634,3.244369395360991e-07,0.0,False,False,False,1
16799437.4005979,-85.12588500976562,-95.65184020996094,-0.615940511226654,0.013554820790886879,4.9539618492126465,-0.11175914853811264,-6.881310400785878e-05,-0.024999620392918587,-0.1887197494506836,-0.010035949759185314,-0.00023861078079789877,5.204225089983083e-05,-1.3088417053222656,89.84281158447266,-0.0004577420768328011,0.35089361667633057,3.244369395360991e-07,0.0,False,False,False,1
16799437.4649635,-85.12503051757812,-95.33677673339844,-0.6230236291885376,0.01354919746518135,4.951872825622559,-0.10875096917152405,-9.449230128666386e-05,-0.03869454935193062,0.10419932007789612,0.14218679070472717,-0.00032824004301801324,4.463847653823905e-05,-1.3056042194366455,89.8427963256836,-0.0004577948711812496,0.3513757586479187,3.244369395360991e-07,0.0,False,False,False,1
16799437.4963348,-85.12459564208984,-95.18035125732422,-0.6264731884002686,0.013546970672905445,4.95056676864624,-0.10757787525653839,-7.05002312315628e-05,-0.041349757462739944,0.037140149623155594,0.19866809248924255,-0.0006352525088004768,-2.87709499389166e-05,-1.2998942136764526,89.84280395507812,-0.0004577938234433532,0.3517993092536926,-7.533345751653542e-07,0.0,False,False,False,1
16799437.4963348,-85.12459564208984,-95.18035125732422,-0.6264731884002686,0.013546970672905445,4.95056676864624,-0.10757787525653839,-7.05002312315628e-05,-0.041349757462739944,0.037140149623155594,0.19866809248924255,-0.0006352525088004768,-2.87709499389166e-05,-1.2998942136764526,89.84280395507812,-0.0004577938234433532,0.3517993092536926,-7.533345751653542e-07,0.0,False,False,False,1
16799437.5242276,-85.12421417236328,-95.04131317138672,-0.6295526027679443,0.013545454479753971,4.949384689331055,-0.10788188874721527,-5.3998181101633236e-05,-0.04209894686937332,-0.010827232152223587,0.22276462614536285,-0.0003352643398102373,-5.9963240346405655e-05,-1.293822169303894,89.84280395507812,-0.0004576859646476805,0.35225576162338257,-7.575071094834129e-07,0.0,False,False,False,1
16799437.6862229,-85.12238311767578,-94.37325286865234,-0.6441168189048767,0.013528112322092056,4.944180011749268,-0.10573235154151917,-9.873170347418636e-05,-0.03051147796213627,0.0037220607046037912,0.23786844313144684,-0.0005044979625381529,3.975367144448683e-05,-1.2618021965026855,89.8427963256836,-0.00045773363672196865,0.352658748626709,3.1525726740255777e-07,0.0,False,False,False,1
16799437.6878443,-85.122314453125,-94.3498306274414,-0.644599437713623,0.01352784875780344,4.944112300872803,-0.10052841901779175,-5.567946573137306e-05,-0.014304310083389282,1.099360466003418,0.23685048520565033,-0.0006046932539902627,4.24083809775766e-05,-1.260675311088562,89.8427963256836,-0.00045768008567392826,0.352658748626709,3.1525726740255777e-07,0.0,False,False,False,1
16799437.6952389,-85.1222152709961,-94.31389617919922,-0.6453579068183899,0.01352761685848236,4.943796634674072,-0.10293182730674744,-3.1909086828818545e-05,-0.04343531280755997,-0.33070626854896545,0.23686975240707397,-0.0009156034793704748,2.39682321989676e-05,-1.2589404582977295,89.8427963256836,-0.00045773311285302043,0.3545190691947937,-7.578647682748851e-07,0.0,False,False,False,1
16799437.7113048,-85.12200164794922,-94.23556518554688,-0.6470274925231934,0.013525809161365032,4.943215847015381,-0.1040804535150528,-0.00011411723971832544,-0.03666426241397858,-0.07251106947660446,0.2361130565404892,-0.0004622877750080079,2.605483132356312e-05,-1.2551838159561157,89.84280395507812,-0.0004576791252475232,0.3546103239059448,3.150188376821461e-07,0.0,False,False,False,1
16799437.7452331,-85.12152862548828,-94.07118225097656,-0.6505609750747681,0.013522795401513577,4.942119121551514,-0.10501435399055481,-9.063803008757532e-05,-0.032983727753162384,-0.028086809441447258,0.23393593728542328,-0.0006545282085426152,4.074070602655411e-05,-1.2473700046539307,89.84280395507812,-0.00045773113379254937,0.3548012971878052,3.150188376821461e-07,0.0,False,False,False,1
16799437.7688518,-85.12120819091797,-93.9527587890625,-0.653107225894928,0.013519871048629284,4.94141149520874,-0.10502142459154129,-0.0001220800040755421,-0.02954055927693844,-0.00029516921495087445,0.23255667090415955,-0.0010007183300331235,8.320978668052703e-05,-1.2417898178100586,89.8427963256836,-0.00045762339141219854,0.35517042875289917,8.531887374374492e-07,0.0,False,False,False,1
16799437.8037134,-85.12074279785156,-93.7823486328125,-0.6568040251731873,0.013517900370061398,4.940478324890137,-0.10584365576505661,-5.715673614758998e-05,-0.027065282687544823,-0.02384764887392521,0.23075737059116364,-0.0002827678981702775,8.673904812894762e-05,-1.2337915897369385,89.84280395507812,-0.00045772880548611283,0.35541290044784546,8.562874427298084e-07,0.0,False,False,False,1
16799437.8354585,-85.12030792236328,-93.62477111816406,-0.6602057218551636,0.013515952974557877,4.939733505249023,-0.10542496293783188,-6.107024091761559e-05,-0.023357512429356575,0.013130188919603825,0.22936227917671204,-0.0008453188929706812,6.48705754429102e-05,-1.22646963596344,89.8427734375,-0.0004576741484925151,0.35572677850723267,3.1984563975129277e-07,0.0,False,False,False,1
16799437.9898222,-85.11988067626953,-93.4664306640625,-0.6636348366737366,0.013512290082871914,4.939054012298584,-0.10571743547916412,-0.00011430284939706326,-0.021204005926847458,-0.00912678986787796,0.22822731733322144,-0.00046952799311839044,0.00012347745359875262,-1.2191476821899414,89.8427734375,-0.00045772624434903264,0.3559851050376892,1.3979747564007994e-06,0.0,False,False,False,1
16799437.9898222,-85.11988067626953,-93.4664306640625,-0.6636348366737366,0.013512290082871914,4.939054012298584,-0.10571743547916412,-0.00011430284939706326,-0.021204005926847458,-0.00912678986787796,0.22822731733322144,-0.00046952799311839044,0.00012347745359875262,-1.2191476821899414,89.8427734375,-0.00045772624434903264,0.3559851050376892,1.3979747564007994e-06,0.0,False,False,False,1
16799437.9962035,-85.11845397949219,-92.95000457763672,-0.6749438047409058,0.013503722846508026,4.937410354614258,-0.10102156549692154,-4.79029149573762e-05,0.009538003243505955,1.1767396926879883,0.22506576776504517,-0.0009048381471075118,0.00016407412476837635,-1.1954606771469116,89.84281921386719,-0.0004577222862280905,0.3559851050376892,1.4183608527673641e-06,0.0,False,False,False,1
16799438.0023948,-85.11837005615234,-92.9192886352539,-0.6755903959274292,0.013503169640898705,4.937285423278809,-0.10259438306093216,-8.893983613234013e-05,-0.020085429772734642,-0.25286465883255005,0.2250903993844986,-0.0005036254297010601,0.00014456376084126532,-1.1940604448318481,89.84282684326172,-0.0004577754298225045,0.3568129539489746,8.820381935947808e-07,0.0,False,False,False,1
16799438.0023948,-85.11837005615234,-92.9192886352539,-0.6755903959274292,0.013501536101102829,4.936903476715088,-0.10513783246278763,-6.613547884626314e-05,-0.01546348538249731,-0.102974072098732,0.22455553710460663,-0.0008025053539313376,0.0001249265915248543,-1.1885074377059937,89.84282684326172,-0.0004577744984999299,0.3568447232246399,8.834683740133187e-07,0.0,False,False,False,1
16799438.0275048,-85.1180419921875,-92.79730987548828,-0.6782172918319702,0.013501536101102829,4.936903476715088,-0.10513783246278763,-6.613547884626314e-05,-0.01546348538249731,-0.102974072098732,0.22455553710460663,-0.0008025053539313376,0.0001249265915248543,-1.181240200996399,89.84282684326172,-0.0004577733052428812,0.3569573163986206,-7.308641443160013e-07,0.0,False,False,False,1
16799438.0603212,-85.11761474609375,-92.63761138916016,-0.6816656589508057,0.013503530994057655,4.936522483825684,-0.10543285310268402,6.168175605125725e-05,-0.011780236847698689,-0.009121988900005817,0.22426089644432068,-0.00040961994091048837,-1.1522984095790889e-05,-1.181240200996399,89.84282684326172,-0.0004577733052428812,0.3569573163986206,-7.308641443160013e-07,0.0,False,False,False,1
16799438.1198469,-85.1167984008789,-92.34284210205078,-0.6879968643188477,0.013499479740858078,4.935741424560547,-0.10359831899404526,-8.484481804771349e-05,-0.015139839611947536,0.06800927221775055,0.0784311443567276,-0.0002544889284763485,8.070380135904998e-05,-1.171418309211731,89.84281921386719,-0.00045782505185343325,0.35717087984085083,8.80844822859217e-07,0.0,False,False,False,1
16799438.2672507,-85.11641693115234,-92.2080078125,-0.6908237338066101,0.01349810790270567,4.9353837966918945,-0.10279199481010437,-5.021755350753665e-05,-0.013091337867081165,0.029516329988837242,0.10407619178295135,-0.00030037539545446634,0.00010264205047860742,-1.170011281967163,89.84281921386719,-0.00045782484812662005,0.35736674070358276,8.912135172067792e-07,0.0,False,False,False,1
16799438.2728694,-85.11504364013672,-91.71453094482422,-0.7009872794151306,0.013493036851286888,4.934107780456543,-0.09813974797725677,-4.1201430576620623e-05,-0.01036741491407156,0.037798717617988586,0.10407619178295135,-0.00030037539545446634,0.00010264205047860742,-1.170011281967163,89.84281921386719,-0.00045782484812662005,0.35736674070358276,8.912135172067792e-07,0.0,False,False,False,1
16799438.2745501,-85.11497497558594,-91.68858337402344,-0.7014757990837097,0.013492690399289131,4.934011459350586,-0.09199593216180801,-6.591303827008232e-05,-0.018325241282582283,1.1688705682754517,0.1556069552898407,-0.0006962392944842577,0.00010775985720101744,-1.169184923171997,89.84284210205078,-0.0004578246735036373,0.35736674070358276,8.912135172067792e-07,0.0,False,False,False,1
16799438.2794886,-85.11491394042969,-91.66504669189453,-0.701915979385376,0.013493022881448269,4.93384313583374,-0.09111548960208893,6.968959496589378e-05,-0.035281285643577576,0.18454429507255554,0.1915711909532547,-0.00034597012563608587,7.002703205216676e-05,-1.1682764291763306,89.84283447265625,-0.0004577711515594274,0.36072635650634766,-8.372616093765828e-07,0.0,False,False,False,1
16799438.2984946,-85.11465454101562,-91.5726089477539,-0.7036998867988586,0.013492436148226261,4.933119297027588,-0.09292798489332199,-3.1325515010394156e-05,-0.03864554315805435,-0.09676859527826309,0.2920084595680237,-0.0009395013330504298,6.303457485046238e-05,-1.1632357835769653,89.84284210205078,-0.0004578237421810627,0.35810190439224243,3.548312861312297e-07,0.0,False,False,False,1
16799438.2984946,-85.11465454101562,-91.5726089477539,-0.7036998867988586,0.013492436148226261,4.933119297027588,-0.09292798489332199,-3.1325515010394156e-05,-0.03864554315805435,-0.09676859527826309,0.2920084595680237,-0.0009395013330504298,6.303457485046238e-05,-1.1488581895828247,89.84284973144531,-0.0004577680374495685,0.35833847522735596,8.949676839620224e-07,0.0,False,False,False,1
16799438.3622079,-85.11382293701172,-91.26081085205078,-0.7094722390174866,0.013487158343195915,4.931066989898682,-0.08631455898284912,-6.470742664532736e-05,-0.030810700729489326,0.1139632910490036,0.44471046328544617,-0.0011911343317478895,6.567798845935613e-05,-1.138148546218872,89.84283447265625,-0.00045776632032357156,0.3588055372238159,3.585854528864729e-07,0.0,False,False,False,1
16799438.3622079,-85.11382293701172,-91.26081085205078,-0.7094722390174866,0.013487158343195915,4.931066989898682,-0.08631455898284912,-6.470742664532736e-05,-0.030810700729489326,0.1139632910490036,0.44471046328544617,-0.0011911343317478895,6.567798845935613e-05,-1.138148546218872,89.84283447265625,-0.00045776632032357156,0.3588055372238159,3.585854528864729e-07,0.0,False,False,False,1
16799438.4322507,-85.11293029785156,-90.92635345458984,-0.7154800891876221,0.013483166694641113,4.92918062210083,-0.08528780937194824,-1.3109066458127927e-05,-0.025975700467824936,0.0221274234354496,0.4737377464771271,-0.001052504638209939,-2.2365642507793382e-05,-1.1065316200256348,89.84283447265625,-0.000457814778201282,0.3594393730163574,-7.160871291489457e-07,0.0,False,False,False,1
16799438.5839126,-85.11257934570312,-90.79352569580078,-0.7178749442100525,0.013479907996952534,4.9285383224487305,-0.08600739389657974,-0.00012099363084416837,-0.02384822815656662,-0.0267177727073431,0.47403421998023987,-0.0012392400531098247,5.586209590546787e-05,-1.0937727689743042,89.84284210205078,-0.00045781279914081097,0.35973596572875977,8.947279184212675e-07,0.0,False,False,False,1
16799438.5839126,-85.11257934570312,-90.79352569580078,-0.7178749442100525,0.013479907996952534,4.9285383224487305,-0.08600739389657974,-0.00012099363084416837,-0.02384822815656662,-0.0267177727073431,0.47403421998023987,-0.0012392400531098247,5.586209590546787e-05,-1.0937727689743042,89.84284210205078,-0.00045781279914081097,0.35973596572875977,8.947279184212675e-07,0.0,False,False,False,1
16799438.5884119,-85.1112060546875,-90.30044555664062,-0.7268213629722595,0.013472159393131733,4.926669597625732,-0.08638502657413483,-5.979470006423071e-05,-0.014420641586184502,-0.002914129290729761,0.464065819978714,-0.0012120404280722141,0.00010028703400166705,-1.0468698740005493,89.8428726196289,-0.0004578591324388981,0.35973596572875977,9.040239774549264e-07,0.0,False,False,False,1
16799438.5900999,-85.11112213134766,-90.26764678955078,-0.727377712726593,0.013471837155520916,4.926665306091309,-0.0803656056523323,-7.417463348247111e-05,-0.010598348453640938,0.33464837074279785,0.4618287682533264,-0.0011561439605429769,9.97037859633565e-05,-1.0437895059585571,89.8428955078125,-0.00045780534856021404,0.35973596572875977,9.040835493578925e-07,0.0,False,False,False,1
16799438.6237585,-85.11073303222656,-90.11884307861328,-0.7300140857696533,0.013470692560076714,4.926140785217285,-0.08497725427150726,-3.792059942497872e-05,-0.017377447336912155,-0.1527845412492752,0.46000269055366516,-0.001436605234630406,6.799408583901823e-05,-1.0298763513565063,89.84288787841797,-0.0004577499639708549,0.3606266379356384,3.676417748010863e-07,0.0,False,False,False,1
16799438.6563846,-85.11029815673828,-89.9576416015625,-0.7329188585281372,0.013470073230564594,4.9257121086120605,-0.08626260608434677,-1.8935976186185144e-05,-0.013106770813465118,-0.03929958492517471,0.4571027159690857,-0.0013866330264136195,5.465536014526151e-05,-1.0148909091949463,89.8429183959961,-0.00045780118671245873,0.3607798218727112,3.676417748010863e-07,0.0,False,False,False,1
16799438.6563846,-85.11029815673828,-89.9576416015625,-0.7329188585281372,0.013470073230564594,4.9257121086120605,-0.08626260608434677,-1.8935976186185144e-05,-0.013106770813465118,-0.03929958492517471,0.4571027159690857,-0.0013866330264136195,5.465536014526151e-05,-1.0148909091949463,89.8429183959961,-0.00045780118671245873,0.3609192967414856,3.676417748010863e-07,0.0,False,False,False,1
16799438.7176326,-85.1094741821289,-89.6553955078125,-0.7384366393089294,0.013468746095895767,4.925105094909668,-0.08771226555109024,6.370041319314623e-06,-0.009347809478640556,-0.03315310552716255,0.4526512920856476,-0.0015788410091772676,-3.078285953961313e-05,-0.987030565738678,89.84293365478516,-0.0004577439103741199,0.3610069155693054,-7.115603466445464e-07,0.0,False,False,False,1
16799438.8663269,-85.10900115966797,-89.4833755493164,-0.7415698766708374,0.013469116762280464,4.924866676330566,-0.08712836354970932,1.0619109161780216e-05,-0.006830381695181131,0.016728032380342484,0.45047619938850403,-0.001426680013537407,-5.47255331184715e-05,-0.9712801575660706,89.84293365478516,-0.00045774178579449654,0.3611184358596802,-7.154944796639029e-07,0.0,False,False,False,1
16799438.8706432,-85.10762786865234,-88.9905776977539,-0.7506468892097473,0.013470377773046494,4.924373149871826,-0.08767533302307129,1.0809966624947265e-05,-0.004230736754834652,-0.004688875284045935,0.44668108224868774,-0.00113231735303998,-7.052090222714469e-05,-0.9264536499977112,89.84294891357422,-0.00045778919593431056,0.3611184358596802,-7.3301930569869e-07,0.0,False,False,False,1
16799438.8724013,-85.1075668334961,-88.96907806396484,-0.7510173916816711,0.013470704667270184,4.924449443817139,-0.0822300910949707,7.491387805202976e-05,0.01748417317867279,1.2478783130645752,0.4462073743343353,-0.0010007756063714623,-7.254255615407601e-05,-0.9244933724403381,89.84294128417969,-0.00045778899220749736,0.3611184358596802,-7.3301930569869e-07,0.0,False,False,False,1
16799438.8797795,-85.10746765136719,-88.93356323242188,-0.7516478300094604,0.013469787314534187,4.92437744140625,-0.08482073247432709,-0.00012730933667626232,-0.009992426261305809,-0.35952675342559814,0.4460783898830414,-0.0015037170378491282,-3.863387246383354e-05,-0.9212626814842224,89.84295654296875,-0.0004577885556500405,0.36137574911117554,3.397450711872807e-07,0.0,False,False,False,1
16799438.8988354,-85.10721588134766,-88.84131622314453,-0.753335177898407,0.013468215242028236,4.924272060394287,-0.0874858945608139,-8.398226782446727e-05,-0.0056295981630682945,-0.1423766165971756,0.4457157552242279,-0.0015029138885438442,3.9001124605420046e-06,-0.9129025340080261,89.84295654296875,-0.0004578408261295408,0.36138540506362915,3.397450711872807e-07,0.0,False,False,False,1
16799438.9336802,-85.10674285888672,-88.67439270019531,-0.7563033699989319,0.013466255739331245,4.923948764801025,-0.08371124416589737,-5.783639062428847e-05,-0.009542345069348812,0.11141202598810196,0.2568546533584595,-0.0007894858135841787,3.195042518200353e-05,-0.9003896117210388,89.84296417236328,-0.0004578392836265266,0.36140549182891846,3.397450711872807e-07,0.0,False,False,False,1
16799438.9691746,-85.10627746582031,-88.49752807617188,-0.759272038936615,0.013464925810694695,4.923417091369629,-0.08061099797487259,-3.703123365994543e-05,-0.014804194681346416,0.08632488548755646,0.07423705607652664,-0.00020871781453024596,3.954023850383237e-05,-0.8956562876701355,89.84297180175781,-0.00045783870154991746,0.36153876781463623,3.397450711872807e-07,0.0,False,False,False,1
16799438.9946292,-85.10592651367188,-88.37068939208984,-0.7613129019737244,0.013463351875543594,4.923089981079102,-0.07860054075717926,-6.109593959990889e-05,-0.012697543948888779,0.07804055511951447,0.011013470590114594,-0.0002732840657699853,4.544416515273042e-05,-0.8948913216590881,89.84296417236328,-0.0004577851796057075,0.3617386817932129,3.397450711872807e-07,0.0,False,False,False,1
16799439.0326955,-85.10541534423828,-88.18597412109375,-0.7642537355422974,0.013462801463901997,4.922632694244385,-0.07790547609329224,-1.4668841686216183e-05,-0.012187003158032894,0.018523942679166794,-0.029869556427001953,7.985451520653442e-05,4.23882738687098e-05,-0.8955675363540649,89.84297180175781,-0.0004578119551297277,0.3618621230125427,3.397450711872807e-07,0.0,False,False,False,1
16799439.1831561,-85.10494995117188,-88.01476287841797,-0.7669128775596619,0.013463808223605156,4.9222540855407715,-0.07654620707035065,2.8942184144398198e-05,-0.010884189046919346,0.0390760712325573,-0.04168654605746269,4.367095698398771e-07,-3.649634527391754e-05,-0.8968788981437683,89.84297943115234,-0.00045783878886140883,0.36202263832092285,-7.379071575996932e-07,0.0,False,False,False,1
16799439.1880825,-85.10358428955078,-87.52251434326172,-0.7739354372024536,0.013455096632242203,4.918582439422607,-0.06389240175485611,-7.32719199731946e-05,-0.030881676822900772,0.10642930120229721,0.42281273007392883,-0.001260490040294826,-6.964488420635462e-05,-0.8670036792755127,89.84297943115234,-0.00045778180356137455,0.36202263832092285,-7.55312839828548e-07,0.0,False,False,False,1
16799439.1909563,-85.10350036621094,-87.4940185546875,-0.7742931246757507,0.01345461793243885,4.918430328369141,-0.05921090394258499,-8.268270175904036e-05,-0.026273153722286224,0.8086046576499939,0.42931339144706726,-0.001178862527012825,-7.135049963835627e-05,-0.8645311594009399,89.84297943115234,-0.0004578348307404667,0.36202263832092285,-7.55312839828548e-07,0.0,False,False,False,1
16799439.197551,-85.1034164428711,-87.46205139160156,-0.7746991515159607,0.013453736901283264,4.918186664581299,-0.0599050335586071,-0.0001356016582576558,-0.03750288859009743,-0.10683518648147583,0.43521931767463684,-0.0008812370360828936,-5.264696665108204e-05,-0.8616898059844971,89.84296417236328,-0.0004577811050694436,0.3635525703430176,3.1745159390084154e-07,0.0,False,False,False,1
