timestamp,location_x,location_y,location_z,velocity_x,velocity_y,velocity_z,acceleration_x,acceleration_y,acceleration_z,angular_velocity_x,angular_velocity_y,angular_velocity_z,rotation_pitch,rotation_yaw,rotation_roll,control_throttle,control_steer,control_brake,control_hand_brake,control_reverse,control_manual_gear_shift,control_gear
17234845.6025485,-85.1468276977539,-103.28299713134766,-0.44187912344932556,1.1131515975648654e-06,9.291768037655856e-06,-0.0013750162906944752,-4.34570694096692e-07,2.6256255296175368e-05,0.006870184559375048,-0.0012327965814620256,-0.0016174117336049676,-0.0003203025262337178,-1.311341643333435,89.8433837890625,-0.00042715875315479934,0.699999988079071,1.1920929521291868e-10,0.0,False,False,False,0
17234845.6935949,-85.1468276977539,-103.28299713134766,-0.44184610247612,1.3843487067788374e-06,6.270602170843631e-05,0.0008212137036025524,4.453534529602621e-06,0.0008771561551839113,0.0360659658908844,-0.0009278676589019597,-0.0014703016495332122,-0.000315871206112206,-1.311341643333435,89.8433837890625,-0.00042715875315479934,0.699999988079071,1.1920929521291868e-10,0.0,False,False,False,0
17234845.7005977,-85.1468276977539,-103.28299713134766,-0.4418351650238037,1.7360524680043454e-06,7.549777365056798e-05,0.0013168628793209791,4.240103589836508e-05,0.001542160171084106,0.05975494161248207,-0.0007607396109960973,-0.0009635596070438623,-0.00032184936571866274,-1.311341643333435,89.8433837890625,-0.00042715875315479934,0.699999988079071,1.1920929521291868e-10,0.0,False,False,False,0
17234845.7005977,-85.1468276977539,-103.28299713134766,-0.4418351650238037,1.7360524680043454e-06,7.549777365056798e-05,0.0013168628793209791,4.240103589836508e-05,0.001542160171084106,0.05975494161248207,-0.0007607396109960973,-0.0009635596070438623,-0.00032184936571866274,-1.311341643333435,89.8433837890625,-0.00042715875315479934,0.699999988079071,1.1920929521291868e-10,0.0,False,False,False,0
17234846.1463817,-85.1468276977539,-103.28299713134766,-0.44181618094444275,1.0769523441922502e-06,5.184844121686183e-05,0.0005619857111014426,-8.256953947238799e-07,-0.00010313791426597163,-0.0035014720633625984,-0.0005718009197153151,-0.0011440891539677978,-0.00033240977791137993,-1.3114030361175537,89.84339141845703,-0.00033578104921616614,0.699999988079071,1.1920929521291868e-10,0.0,False,False,False,0
17234846.1498779,-85.1468276977539,-103.28299713134766,-0.4417196810245514,1.3650948176291422e-06,6.951257091714069e-05,0.0011746485251933336,4.630974217434414e-06,0.0002838947402779013,0.009846607223153114,-0.0001759288425091654,-0.00016417514416389167,-0.00034799848799593747,-1.3114030361175537,89.84339141845703,-0.00033578104921616614,0.699999988079071,1.1920929521291868e-10,0.0,False,False,False,0
17234846.1498779,-85.1468276977539,-103.28299713134766,-0.4417196810245514,1.3650948176291422e-06,6.951257091714069e-05,0.0011746485251933336,4.630974217434414e-06,0.0002838947402779013,0.009846607223153114,-0.0001759288425091654,-0.00016417514416389167,-0.00034799848799593747,-1.3114030361175537,89.84339141845703,-0.00033578104921616614,0.699999988079071,1.1920929521291868e-10,0.0,False,False,False,0
17234846.1623751,-85.1468276977539,-103.28299713134766,-0.4416576027870178,1.275766408070922e-06,0.00015174939471762627,0.00396109651774168,4.70506347483024e-05,-0.003970795776695013,-0.14953787624835968,-0.00019177763897459954,-0.00023223637253977358,-0.00020068474987056106,-1.3114030361175537,89.84339141845703,-0.00033578104921616614,0.699999988079071,1.1920929521291868e-10,0.0,False,False,False,0
17234846.1779594,-85.1468276977539,-103.28299713134766,-0.4416361153125763,1.4488329043160775e-06,7.777273276587948e-05,0.0013162794057279825,1.1234290468564723e-05,-0.004802057985216379,-0.1716834008693695,-0.00023268311633728445,-0.000400352175347507,-0.00032090823515318334,-1.3114030361175537,89.84339141845703,-0.00033578104921616614,0.699999988079071,1.1920929521291868e-10,0.0,False,False,False,0
17234846.2006245,-85.1468276977539,-103.28299713134766,-0.4416084289550781,1.3664289326698054e-06,7.355436537181959e-05,0.001095186686143279,-3.6557696603267686e-06,-0.00018714363977778703,-0.009808557108044624,-0.00019669788889586926,-0.0004023924993816763,-0.00031697156373411417,-1.3114030361175537,89.84339141845703,-0.00033578104921616614,0.699999988079071,1.1920929521291868e-10,0.0,False,False,False,0
17234846.2226341,-85.1468276977539,-103.28299713134766,-0.4415849447250366,1.4459967587754363e-06,7.122546230675653e-05,0.0009475566330365837,3.637818736024201e-06,-0.00010647679300745949,-0.0067496043629944324,-0.00018295017071068287,-0.0003076381981372833,-0.0003126126539427787,-1.3114030361175537,89.84339141845703,-0.00033578104921616614,0.699999988079071,1.1920929521291868e-10,0.0,False,False,False,0
17234846.2436688,-85.1468276977539,-103.28299713134766,-0.44156312942504883,1.3923638562118867e-06,7.251471106428653e-05,0.0009278274956159294,-2.5792737687879708e-06,6.200159259606153e-05,-0.0009487990755587816,-0.00015189623809419572,-0.00019979377975687385,-0.0003028119099326432,-1.3114030361175537,89.84339141845703,-0.00033578104921616614,0.699999988079071,1.1920929521291868e-10,0.0,False,False,False,0
17234846.2641088,-85.1468276977539,-103.28299713134766,-0.441546767950058,1.2589824791575666e-06,6.774574285373092e-05,0.0006986819789744914,-6.495572506537428e-06,-0.0002322451473446563,-0.011159214191138744,-0.00019497700850479305,-0.0002510191989131272,-0.0002983222366310656,-1.3114030361175537,89.84339141845703,-0.00033578104921616614,0.699999988079071,1.1920929521291868e-10,0.0,False,False,False,0
17234846.282347,-85.1468276977539,-103.28299713134766,-0.4415789246559143,1.3370643046073383e-06,4.552453447104199e-06,-0.001614795415662229,4.22511493525235e-06,-0.003419476095587015,-0.12518544495105743,-0.00028477454907260835,-0.0001581343385623768,-0.0003510691749397665,-1.3114030361175537,89.84339141845703,-0.00033578104921616614,0.699999988079071,1.1920929521291868e-10,0.0,False,False,False,0
17234846.2999811,-85.1468276977539,-103.28299713134766,-0.4415944516658783,1.3476056892613997e-06,2.4268627385026775e-05,-0.0008110191556625068,5.950238914920192e-07,0.0011129082413390279,0.045370329171419144,-0.00017657021817285568,-8.561561116948724e-05,-0.0003494838601909578,-1.3114030361175537,89.84339141845703,-0.00033578104921616614,0.699999988079071,1.1920929521291868e-10,0.0,False,False,False,0
17234846.2999811,-85.1468276977539,-103.28299713134766,-0.4415944516658783,1.3476056892613997e-06,2.4268627385026775e-05,-0.0008110191556625068,5.950238914920192e-07,0.0011129082413390279,0.045370329171419144,-0.00017657021817285568,-8.561561116948724e-05,-0.0003494838601909578,-1.3114030361175537,89.84339141845703,-0.00033578104921616614,0.699999988079071,1.1920929521291868e-10,0.0,False,False,False,0
17234846.3884153,-85.1468276977539,-103.28299713134766,-0.4416084587574005,1.2498832120400039e-06,2.5917290258803405e-05,-0.0007161054527387023,-5.435640559880994e-06,9.17039651540108e-05,0.005279407370835543,-0.00014078656386118382,-0.00038116631912998855,-0.00034408288775011897,-1.3114030361175537,89.84339141845703,-0.00033578104921616614,0.699999988079071,1.1920929521291868e-10,0.0,False,False,False,0
17234846.3924898,-85.1468276977539,-103.28299713134766,-0.44163915514945984,1.3240967291494599e-06,3.7984100345056504e-05,-0.00016835138376336545,1.0177807325817412e-06,0.0001654869265621528,0.007512021344155073,-0.00017491227481514215,-0.00015100948803592473,-0.0003505110216792673,-1.3114030361175537,89.84339141845703,-0.00033578104921616614,0.699999988079071,1.1920929521291868e-10,0.0,False,False,False,0
17234846.4061421,-85.1468276977539,-103.28299713134766,-0.441589891910553,9.265795029023138e-07,0.00011928930325666443,0.00269103841856122,-5.459906333271647e-06,-0.003914775792509317,-0.14301683008670807,0.00015777510998304933,-0.0003924401826225221,-0.00023538226378150284,-1.3114030361175537,89.84339141845703,-0.00033578104921616614,0.699999988079071,1.1920929521291868e-10,0.0,False,False,False,0
17234846.417593,-85.1468276977539,-103.28299713134766,-0.4415636658668518,1.4328149973152904e-06,0.0001066720433300361,0.002158652525395155,4.390517278807238e-05,-0.0010942792287096381,-0.04617316275835037,0.00011006425484083593,0.00020660363952629268,-0.0002554093371145427,-1.3114030361175537,89.84339141845703,-0.00033578104921616614,0.699999988079071,1.1920929521291868e-10,0.0,False,False,False,0
17234846.4358006,-85.1468276977539,-103.28299713134766,-0.44158339500427246,1.3171438695280813e-06,1.8918812202173285e-05,-0.0010171271860599518,-6.414841209334554e-06,-0.004866582341492176,-0.1761210709810257,-0.00010134893091162667,-6.118561941548251e-06,-0.0003521702019497752,-1.3114030361175537,89.84339141845703,-0.00033578104921616614,0.699999988079071,1.1920929521291868e-10,0.0,False,False,False,0
17234846.453945,-85.1468276977539,-103.28299713134766,-0.4415988326072693,1.1205760301891132e-06,2.3974625946721062e-05,-0.0007874055299907923,-1.08580006781267e-05,0.00027927267365157604,0.012689349241554737,-4.263656956027262e-05,-0.0002736028691288084,-0.000347142165992409,-1.3114030361175537,89.84339141845703,-0.00033578104921616614,0.699999988079071,1.1920929521291868e-10,0.0,False,False,False,0
17234846.4728644,-85.1468276977539,-103.28299713134766,-0.44161906838417053,1.5155562778090825e-06,1.8093287508236244e-05,-0.0009833965450525284,2.0881521777482703e-05,-0.00031093021971173584,-0.010361507534980774,-0.00014675379497930408,6.531245890073478e-05,-0.0003580076736398041,-1.3114030361175537,89.84339141845703,-0.00033578104921616614,0.699999988079071,1.1920929521291868e-10,0.0,False,False,False,0
17234846.4929058,-85.1468276977539,-103.28299713134766,-0.4416467845439911,9.901315252136556e-07,9.91493470792193e-06,-0.001260331948287785,-2.6276229618815705e-05,-0.0004089953436050564,-0.013849401846528053,-0.0001312593522015959,-0.000364267616532743,-0.0003502689942251891,-1.3114030361175537,89.84339141845703,-0.00033578104921616614,0.699999988079071,1.1920929521291868e-10,0.0,False,False,False,0
17234846.5128342,-85.1468276977539,-103.28299713134766,-0.44166338443756104,1.1391151701900526e-06,2.1780282622785307e-05,-0.0007532426388934255,7.518351139879087e-06,0.0005987761542201042,0.025589892640709877,-0.00010935305908787996,-0.0003211080620530993,-0.0003510310489218682,-1.3114030361175537,89.84339141845703,-0.00033578104921616614,0.699999988079071,1.1920929521291868e-10,0.0,False,False,False,0
17234846.5310021,-85.1468276977539,-103.28299713134766,-0.44165855646133423,1.3620738172903657e-06,4.7286299377446994e-05,0.0002610354858916253,1.2108040209568571e-05,0.0013851352268829942,0.05508160591125488,5.076409433968365e-05,0.00017248444783035666,-0.00035867959377355874,-1.3114030361175537,89.84339141845703,-0.00033578104921616614,0.699999988079071,1.1920929521291868e-10,0.0,False,False,False,0
17234846.5310021,-85.1468276977539,-103.28299713134766,-0.44165855646133423,1.3620738172903657e-06,4.7286299377446994e-05,0.0002610354858916253,1.2108040209568571e-05,0.0013851352268829942,0.05508160591125488,5.076409433968365e-05,0.00017248444783035666,-0.00035867959377355874,-1.3114030361175537,89.84339141845703,-0.00033578104921616614,0.699999988079071,1.1920929521291868e-10,0.0,False,False,False,0
17234846.5693015,-85.1468276977539,-103.28299713134766,-0.44166064262390137,1.4227692872736952e-06,4.2579471482895315e-05,9.251708979718387e-05,6.706270141876303e-06,0.00033121579326689243,0.013401620090007782,3.703909897012636e-05,0.00014846015255898237,-0.0003598395560402423,-1.3114030361175537,89.84339141845703,-0.00033578104921616614,0.699999988079071,1.1920929521291868e-10,0.0,False,False,False,0
17234846.5896656,-85.1468276977539,-103.28299713134766,-0.44166064262390137,1.3501190778697492e-06,4.022464054287411e-05,4.072519914188888e-06,-3.8029988900234457e-06,-0.0001232676295330748,-0.004629781469702721,-1.0021417438110802e-05,-0.00011987002653768286,-0.00035430252319201827,-1.3114030361175537,89.84339141845703,-0.00033578104921616614,0.699999988079071,1.1920929521291868e-10,0.0,False,False,False,0
17234846.6068663,-85.1468276977539,-103.28299713134766,-0.44165515899658203,1.3839772918800008e-06,4.740685108117759e-05,0.0002842289104592055,1.8140142401534831e-06,0.000384799757739529,0.01500987820327282,-1.1829433788079768e-05,4.7507957788184285e-05,-0.00035677573760040104,-1.3114030361175537,89.84339141845703,-0.00033578104921616614,0.699999988079071,1.1920929521291868e-10,0.0,False,False,False,0
17234846.6068663,-85.1468276977539,-103.28299713134766,-0.44165515899658203,1.3839772918800008e-06,4.740685108117759e-05,0.0002842289104592055,1.8140142401534831e-06,0.000384799757739529,0.01500987820327282,-6.28105117357336e-05,-0.00022619908850174397,-0.00035183184081688523,-1.3114030361175537,89.84339141845703,-0.00033578104921616614,0.699999988079071,1.1920929521291868e-10,0.0,False,False,False,0
17234846.7057038,-85.1468276977539,-103.28299713134766,-0.4416463375091553,1.5696173250034917e-06,4.292696758056991e-05,0.00011528534378157929,3.750560154003324e-06,2.9667118724319153e-05,0.0012347244191914797,3.9672126149525866e-05,0.00017355001182295382,-0.0003607294347602874,-1.3114030361175537,89.84339141845703,-0.00033578104921616614,0.699999988079071,1.1920929521291868e-10,0.0,False,False,False,0
17234846.7075078,-85.1468276977539,-103.28299713134766,-0.44162431359291077,1.3373989986575907e-06,0.0001367656805086881,0.00359859480522573,-3.791317794821225e-05,0.015320598147809505,0.568703293800354,0.00022334120876621455,2.7459342163638212e-05,-0.0002790918224491179,-1.3114030361175537,89.84339141845703,-0.00033578104921616614,0.699999988079071,1.1920929521291868e-10,0.0,False,False,False,0
17234846.7135248,-85.1468276977539,-103.28299713134766,-0.44160401821136475,1.435727767784556e-06,0.00013582601968664676,0.0034648599103093147,1.6768788555054925e-05,-0.00016024784417822957,-0.02280687727034092,0.00014812742301728576,0.0002045186993200332,-0.0002635066630318761,-1.3114030361175537,89.84339141845703,-0.00033578104921616614,0.699999988079071,1.1920929521291868e-10,0.0,False,False,False,0
17234846.724,-85.1468276977539,-103.28299713134766,-0.4415678381919861,9.920197499013739e-07,0.00013927310646977276,0.0034167577978223562,-4.375602657091804e-05,0.0003399325942154974,-0.00474356347694993,0.00023782200878486037,2.0568948002619436e-06,-0.00020407227566465735,-1.3114030361175537,89.84339141845703,-0.00033578104921616614,0.699999988079071,1.1920929521291868e-10,0.0,False,False,False,0
17234846.724,-85.1468276977539,-103.28299713134766,-0.4415678381919861,9.920197499013739e-07,0.00013927310646977276,0.0034167577978223562,-4.375602657091804e-05,0.0003399325942154974,-0.00474356347694993,0.00023782200878486037,2.0568948002619436e-06,-0.00020407227566465735,-1.3114030361175537,89.84339141845703,-0.00033578104921616614,0.699999988079071,1.1920929521291868e-10,0.0,False,False,False,0
17234846.7611802,-85.1468276977539,-103.28299713134766,-0.4415949881076813,1.1031864914912148e-06,2.2371410523192026e-05,-0.0007928002160042524,-8.365592293557711e-06,-0.00033937260741367936,-0.011924592778086662,-5.3294147619453724e-06,-0.00011335121234878898,-0.0003538305754773319,-1.3114030361175537,89.84339141845703,-0.00033578104921616614,0.699999988079071,1.1920929521291868e-10,0.0,False,False,False,0
17234846.7611802,-85.1468276977539,-103.28299713134766,-0.4415949881076813,1.1031864914912148e-06,2.2371410523192026e-05,-0.0007928002160042524,-8.365592293557711e-06,-0.00033937260741367936,-0.011924592778086662,-5.3294147619453724e-06,-0.00011335121234878898,-0.0003538305754773319,-1.3114030361175537,89.84339141845703,-0.00033578104921616614,0.699999988079071,1.1920929521291868e-10,0.0,False,False,False,0
17234846.8004114,-85.1468276977539,-103.28299713134766,-0.44157370924949646,1.3899610848966404e-06,2.1684019884560257e-05,-0.0008679538732394576,-2.1861856112082023e-06,-0.0036715823225677013,-0.13677388429641724,-5.411999154603109e-05,0.00014352105790749192,-0.0003574970760382712,-1.3114030361175537,89.84339141845703,-0.00033578104921616614,0.699999988079071,1.1920929521291868e-10,0.0,False,False,False,0
17234846.8190555,-85.1468276977539,-103.28299713134766,-0.44159168004989624,1.2281577710382408e-06,2.0451396267162636e-05,-0.0008872558828443289,-8.609764336142689e-06,-6.558949826285243e-05,-0.0010270850034430623,-6.396236130967736e-05,-1.6936484826146625e-05,-0.0003557206073310226,-1.3114030361175537,89.84339141845703,-0.00033578104921616614,0.699999988079071,1.1920929521291868e-10,0.0,False,False,False,0
17234846.8383333,-85.1468276977539,-103.28299713134766,-0.44161155819892883,1.0915199482042226e-06,1.8083601389662363e-05,-0.0009463528404012322,-7.064344572427217e-06,-0.00012241792865097523,-0.0030553857795894146,6.3303477872977965e-06,-0.0004203257558401674,-0.00034797334228642285,-1.3114030361175537,89.84339141845703,-0.00033578104921616614,0.699999988079071,1.1920929521291868e-10,0.0,False,False,False,0
17234846.8575829,-85.1468276977539,-103.28299713134766,-0.4416253864765167,1.383668859489262e-06,2.4789869712549262e-05,-0.0006579919718205929,1.514226823928766e-05,0.00034759024856612086,0.014945931732654572,-3.5665892937686294e-05,9.6216945166816e-06,-0.00035768706584349275,-1.3114030361175537,89.84339141845703,-0.00033578104921616614,0.699999988079071,1.1920929521291868e-10,0.0,False,False,False,0
17234846.8761504,-85.1468276977539,-103.28299713134766,-0.4416283965110779,1.30458261082822e-06,3.7590114516206086e-05,-0.00014350964920595288,-4.2294823288102634e-06,0.0006845489842817187,0.02751418948173523,-3.975841900683008e-05,5.808062633150257e-05,-0.00035712969838641584,-1.3114030361175537,89.84339141845703,-0.00033578104921616614,0.699999988079071,1.1920929521291868e-10,0.0,False,False,False,0
17234846.8956947,-85.1468276977539,-103.28299713134766,-0.44163843989372253,1.3942695886726142e-06,2.8868018489447422e-05,-0.0004714582464657724,4.6180180106603075e-06,-0.0004491042054723948,-0.016886204481124878,-8.732628339203075e-05,-5.1276270824018866e-05,-0.0003566026862245053,-1.3114030361175537,89.84339141845703,-0.00033578104921616614,0.699999988079071,1.1920929521291868e-10,0.0,False,False,False,0
17234846.9885655,-85.1468276977539,-103.28299713134766,-0.44158831238746643,1.2539670706246397e-06,0.0001009768238873221,0.002166126621887088,-6.81404299029964e-06,0.0035020934883505106,0.12809903919696808,9.790486365091056e-05,-5.090560807730071e-05,-0.00030363997211679816,-1.3114030361175537,89.84339141845703,-0.00033578104921616614,0.699999988079071,1.1920929521291868e-10,0.0,False,False,False,0
17234846.993044,-85.1468276977539,-103.28299713134766,-0.4416220486164093,1.3312062492332188e-06,3.5341232432983816e-05,-0.0002395745541434735,1.0316329053239315e-06,-0.0008766514365561306,-0.0321313701570034,-1.570393123984104e-06,0.00010409505193820223,-0.00035825540544465184,-1.3114030361175537,89.84339141845703,-0.00033578104921616614,0.699999988079071,1.1920929521291868e-10,0.0,False,False,False,0
17234846.9951486,-85.1468276977539,-103.28299713134766,-0.44160282611846924,1.0210426353296498e-06,0.0001599463721504435,0.004255048930644989,-6.861870497232303e-05,0.027566879987716675,0.9943629503250122,0.0002746526733972132,-4.130672459723428e-05,-0.00018042438023258,-1.3114030361175537,89.84339141845703,-0.00033578104921616614,0.699999988079071,1.1920929521291868e-10,0.0,False,False,False,0
17234847.0059208,-85.1468276977539,-103.28299713134766,-0.44156795740127563,1.0249594879496726e-06,0.00013438984751701355,0.003225645050406456,3.7923496165603865e-07,-0.0024744172114878893,-0.09966827183961868,0.00023648110800422728,-0.0003363867581356317,-0.00020227346976753324,-1.3114030361175537,89.84339141845703,-0.00033578104921616614,0.699999988079071,1.1920929521291868e-10,0.0,False,False,False,0
17234847.016885,-85.1468276977539,-103.28299713134766,-0.44153955578804016,1.0669554058040376e-06,0.00011508919124025851,0.0024598422460258007,3.822398412012262e-06,-0.0017567136092111468,-0.06970209628343582,0.00011606026237132028,-6.253542233025655e-05,-0.00023169658379629254,-1.3114030361175537,89.84339141845703,-0.00033578104921616614,0.699999988079071,1.1920929521291868e-10,0.0,False,False,False,0
17234847.0350174,-85.1468276977539,-103.28299713134766,-0.44155967235565186,1.3278773849378922e-06,1.817569136619568e-05,-0.0010384247871115804,1.4380145330505911e-05,-0.005341175943613052,-0.19279934465885162,-4.184553836239502e-05,2.0227960817464918e-07,-0.00035269217914901674,-1.3114030361175537,89.84339141845703,-0.00033578104921616614,0.699999988079071,1.1920929521291868e-10,0.0,False,False,False,0
17234847.0542357,-85.1468276977539,-103.28299713134766,-0.4415856599807739,1.2782559224433498e-06,1.1326521416776814e-05,-0.0012642934452742338,-2.6039535896416055e-06,-0.0003594194713514298,-0.011852764524519444,-7.938677299534902e-06,8.078724204096943e-05,-0.0003587392857298255,-1.3114030361175537,89.84339141845703,-0.00033578104921616614,0.699999988079071,1.1920929521291868e-10,0.0,False,False,False,0
17234847.0741299,-85.1468276977539,-103.28299713134766,-0.44161567091941833,1.4367844869411783e-06,7.122308034013258e-06,-0.0013874953147023916,7.960859875311144e-06,-0.00021112379909027368,-0.006186852231621742,-9.531665273243561e-05,-8.893043559510261e-05,-0.00035654427483677864,-1.3114030361175537,89.84339141845703,-0.00033578104921616614,0.699999988079071,1.1920929521291868e-10,0.0,False,False,False,0
17234847.0932152,-85.1468276977539,-103.28299713134766,-0.44162729382514954,1.1481431556603638e-06,2.7421116101322696e-05,-0.0005574337556026876,-1.5105150851013605e-05,0.0010622753761708736,0.04343870282173157,-5.536250682780519e-05,-0.00018198929319623858,-0.00035282495082356036,-1.3114030361175537,89.84339141845703,-0.00033578104921616614,0.699999988079071,1.1920929521291868e-10,0.0,False,False,False,0
17234847.1119042,-85.1468276977539,-103.28299713134766,-0.44162920117378235,1.3761787158728112e-06,3.909006773028523e-05,-8.924338908400387e-05,1.2296535714995116e-05,0.0006292337784543633,0.02524658478796482,-1.5729568985989317e-05,9.874829993350431e-05,-0.00035752475378103554,-1.3114030361175537,89.84339141845703,-0.00033578104921616614,0.699999988079071,1.1920929521291868e-10,0.0,False,False,False,0
17234847.1313564,-85.1468276977539,-103.28299713134766,-0.4416413903236389,1.2787262448910042e-06,2.6482342946110293e-05,-0.0005657057627104223,-4.989681656297762e-06,-0.0006455304101109505,-0.02439543604850769,-2.0929543097736314e-05,-7.85206284490414e-05,-0.00035617794492281973,-1.3114030361175537,89.84339141845703,-0.00033578104921616614,0.699999988079071,1.1920929521291868e-10,0.0,False,False,False,0
17234847.1509913,-85.1468276977539,-103.28299713134766,-0.44165098667144775,1.561175963615824e-06,2.907603993662633e-05,-0.0004405433719512075,1.4376079889188986e-05,0.00013201357796788216,0.006370495073497295,6.059666338842362e-05,7.173822814365849e-05,-0.0003598736657295376,-1.3114030361175537,89.84339141845703,-0.00033578104921616614,0.699999988079071,1.1920929521291868e-10,0.0,False,False,False,0
17234847.169471,-85.1468276977539,-103.28299713134766,-0.44164547324180603,1.3379723213802208e-06,4.74411244795192e-05,0.00028363303863443434,-1.2007748409814667e-05,0.0009879915742203593,0.03895872086286545,0.00011320962948957458,0.0001712165103526786,-0.00035933402250520885,-1.3114030361175537,89.84339141845703,-0.00033578104921616614,0.699999988079071,1.1920929521291868e-10,0.0,False,False,False,0
17234847.1884979,-85.1468276977539,-103.28299713134766,-0.4416428804397583,1.227754978572193e-06,4.377007280709222e-05,0.00013471322017721832,-5.866868832526961e-06,-0.00019541005895007402,-0.0079270014539361,-7.358377843047492e-06,-5.136426989338361e-05,-0.0003549166431184858,-1.3114030361175537,89.84339141845703,-0.00033578104921616614,0.699999988079071,1.1920929521291868e-10,0.0,False,False,False,0
17234847.2071786,-85.1468276977539,-103.28299713134766,-0.4416428804397583,1.284863060391217e-06,4.133388210902922e-05,4.0572511352365837e-05,3.0143348794808844e-06,-0.00012858941045124084,-0.004969027359038591,-6.765155376342591e-06,-5.0547932914923877e-05,-0.0003554277354851365,-1.3114030361175537,89.84339141845703,-0.00033578104921616614,0.699999988079071,1.1920929521291868e-10,0.0,False,False,False,0
17234847.2984228,-85.1468276977539,-103.28299713134766,-0.44163793325424194,1.3729359125136398e-06,4.682212966145016e-05,0.0002525146119296551,4.743133104057051e-06,0.0002955676754936576,0.01141406875103712,3.699532680911943e-05,2.26654428843176e-05,-0.0003558762837201357,-1.3114030361175537,89.84339141845703,-0.00033578104921616614,0.699999988079071,1.1920929521291868e-10,0.0,False,False,False,0
17234847.303389,-85.14677429199219,-103.26303100585938,-0.442207396030426,0.0018568423110991716,0.6783905625343323,-0.015427435748279095,0.024661431089043617,9.016007423400879,-0.2084054797887802,0.5648605823516846,-0.0013991323066875339,-0.0003070332168135792,-1.291137933731079,89.84326934814453,-0.00033572499523870647,0.699999988079071,1.1920929521291868e-10,0.0,False,False,False,0
17234847.3059377,-85.14676666259766,-103.25906372070312,-0.44229400157928467,0.0020378672052174807,0.7446848750114441,-0.012950163334608078,0.03406759351491928,12.476116180419922,0.466204971075058,0.5549047589302063,-0.0015301969833672047,-0.000309696770273149,-1.2881735563278198,89.84326171875,-0.0003357245877850801,0.699999988079071,1.1920929521291868e-10,0.0,False,False,False,1
17234847.3148301,-85.14674377441406,-103.2516860961914,-0.4424862265586853,0.0023176786489784718,0.8468460440635681,-0.01873159408569336,0.03232608735561371,11.802486419677734,-0.6679177284240723,0.5766991972923279,-0.0014675887068733573,-0.00031176922493614256,-1.28317391872406,89.84326934814453,-0.00033572391839697957,0.699999988079071,-5.365014317249006e-07,0.0,False,False,False,1
17234847.3243528,-85.14671325683594,-103.24241638183594,-0.44273677468299866,0.0026120904367417097,0.9550909996032715,-0.02250298485159874,0.03046385943889618,11.200499534606934,-0.39023953676223755,0.5699583888053894,-0.0019672864582389593,-0.0002759411872830242,-1.2776483297348022,89.84326171875,-0.00033566984347999096,0.699999988079071,1.0733604085544357e-06,0.0,False,False,False,1
17234847.3434003,-85.14665985107422,-103.22181701660156,-0.44326865673065186,0.0031375205144286156,1.1467211246490479,-0.02635006792843342,0.028149496763944626,10.266430854797363,-0.20610439777374268,0.5153948664665222,-0.0012236388865858316,-0.00025699345860630274,-1.2677308320999146,89.84326171875,-0.00033572191023267806,0.699999988079071,1.075267846317729e-06,0.0,False,False,False,1
17234847.3642817,-85.14659118652344,-103.19578552246094,-0.4438711404800415,0.0036459288094192743,1.332409143447876,-0.028422577306628227,0.024906836450099945,9.096824645996094,-0.10153188556432724,0.42616888880729675,-0.0010376647114753723,-0.00022044354409445077,-1.2584553956985474,89.84326171875,-0.00033572071697562933,0.699999988079071,1.0770559129014146e-06,0.0,False,False,False,1
17234847.3843196,-85.14649963378906,-103.16679382324219,-0.44454291462898254,0.004088603891432285,1.494264006614685,-0.03266005963087082,0.02205864153802395,8.065279960632324,-0.21115511655807495,0.33961281180381775,-0.0011874954216182232,-0.00023168900224845856,-1.2510651350021362,89.84326171875,-0.00033571975654922426,0.699999988079071,-5.329847567736579e-07,0.0,False,False,False,1
17234847.4026601,-85.14642333984375,-103.1368408203125,-0.4452848434448242,0.004458875861018896,1.6293997764587402,-0.038542985916137695,0.01976734586060047,7.21436071395874,-0.31406599283218384,0.26570335030555725,-0.0007025775266811252,-0.00023521590628661215,-1.2457239627838135,89.84326934814453,-0.00033571908716112375,0.699999988079071,-5.338787900655007e-07,0.0,False,False,False,1
17234847.4218774,-85.14632415771484,-103.10359191894531,-0.4460945427417755,0.004803011659532785,1.7547539472579956,-0.041370924562215805,0.017862709239125252,6.506632328033447,-0.14678695797920227,0.18966971337795258,-0.0006220264476723969,-0.00020103066344745457,-1.2417283058166504,89.84326171875,-0.00033566521597094834,0.699999988079071,2.562999812383282e-09,0.0,False,False,False,1
17234847.4413586,-85.14622497558594,-103.0677490234375,-0.4469512403011322,0.005114494822919369,1.8692446947097778,-0.04375643655657768,0.016012664884328842,5.885717868804932,-0.1226339265704155,0.12202814966440201,-0.00038334346027113497,-0.00018542188627179712,-1.2390440702438354,89.84325408935547,-0.00033566486672498286,0.699999988079071,2.562999812383282e-09,0.0,False,False,False,1
17234847.4612322,-85.14613342285156,-103.02926635742188,-0.4478592872619629,0.005404911935329437,1.9749395847320557,-0.04603429138660431,0.014710024930536747,5.353590965270996,-0.11537647247314453,0.06424813717603683,-0.00016750491340644658,-0.0001938102359417826,-1.237486720085144,89.84326171875,-0.0003356646921020001,0.699999988079071,-5.347132514543773e-07,0.0,False,False,False,1
17234847.4811115,-85.14601135253906,-102.98859405517578,-0.4488070607185364,0.0056723118759691715,2.0722618103027344,-0.04804323986172676,0.013467431999742985,4.901573657989502,-0.10117944329977036,0.016390662640333176,0.00016883830539882183,-0.00017150174244306982,-1.2369335889816284,89.84326934814453,-0.0003357179812155664,0.699999988079071,1.6689309934037055e-09,0.0,False,False,False,1
17234848.2176504,-85.14537811279297,-102.75850677490234,-0.4540562629699707,0.0067590451799333096,2.4699647426605225,-0.05646603927016258,0.002716833259910345,0.9942573308944702,-0.021056998521089554,-0.09891729801893234,0.000725556630641222,-7.20969692338258e-05,-1.2430670261383057,89.84326934814453,-0.00033571873791515827,0.699999988079071,1.1837472584375064e-06,0.0,False,False,False,1
17234848.2598204,-85.14473724365234,-102.52262115478516,-0.45938169956207275,0.007535435259342194,2.7538719177246094,-0.06280733644962311,0.008658032864332199,3.166034460067749,-0.07071594893932343,-0.10493861883878708,0.00042956392280757427,-4.4348682422423735e-05,-1.2525882720947266,89.84326171875,-0.0003356665838509798,0.699999988079071,1.1934030226257164e-06,0.0,False,False,False,1
17234848.2660516,-85.14436340332031,-102.39181518554688,-0.4622611999511719,0.007901639677584171,2.887063503265381,-0.061284277588129044,0.007767292205244303,2.8438730239868164,0.8290733098983765,-0.09095236659049988,9.641520591685548e-05,-9.533906995784491e-05,-1.2571371793746948,89.84326171875,-0.0003357205423526466,0.699999988079071,1.2051943087953987e-07,0.0,False,False,False,1
17234848.2660516,-85.14436340332031,-102.39181518554688,-0.4622611999511719,0.007901639677584171,2.887063503265381,-0.061284277588129044,0.007767292205244303,2.8438730239868164,0.8290733098983765,-0.09095236659049988,9.641520591685548e-05,-9.533906995784491e-05,-1.2571371793746948,89.84326171875,-0.0003357205423526466,0.699999988079071,1.2051943087953987e-07,0.0,False,False,False,1
17234848.2660516,-85.14436340332031,-102.39181518554688,-0.4622611999511719,0.007901639677584171,2.887063503265381,-0.061284277588129044,0.007767292205244303,2.8438730239868164,0.8290733098983765,-0.09014607965946198,0.0004817810549866408,-0.00012275076005607843,-1.2582710981369019,89.84327697753906,-0.000335774093400687,0.699999988079071,-4.162204163549177e-07,0.0,False,False,False,1
17234848.2874549,-85.14419555664062,-102.32958984375,-0.46364152431488037,0.00806504674255848,2.946284532546997,-0.06769680976867676,0.007552993018180132,2.7694623470306396,-0.3916699290275574,-0.08991126716136932,7.248947804328054e-05,-0.0001222831488121301,-1.2590633630752563,89.84327697753906,-0.0003357208042871207,0.699999988079071,-4.165184464000049e-07,0.0,False,False,False,1
17234848.3064008,-85.14404296875,-102.27393341064453,-0.4649196267127991,0.008205313235521317,2.997555732727051,-0.06929241865873337,0.007521032355725765,2.749140977859497,-0.08555590361356735,-0.08484698086977005,0.00016764146857894957,-0.00010937060142168775,-1.2606548070907593,89.84326171875,-0.0003357210080139339,0.699999988079071,1.1986374204298045e-07,0.0,False,False,False,1
17234848.3241542,-85.14388275146484,-102.21984100341797,-0.4661509096622467,0.008337367326021194,3.046006441116333,-0.06981875002384186,0.0074061197228729725,2.717308759689331,-0.02951876074075699,-0.07938724011182785,5.4205829655984417e-05,-0.00010192480112891644,-1.2620823383331299,89.84326171875,-0.00033572118263691664,0.699999988079071,1.1986374204298045e-07,0.0,False,False,False,1
17234848.3427511,-85.14373016357422,-102.162353515625,-0.4674685299396515,0.008475429378449917,3.0961122512817383,-0.07135454565286636,0.007403903640806675,2.687042474746704,-0.08236066997051239,-0.07450935244560242,0.00040675615309737623,-0.00015413446817547083,-1.2634892463684082,89.84327697753906,-0.00033572138636372983,0.699999988079071,-9.549271453579422e-07,0.0,False,False,False,1
17234848.4381709,-85.14356994628906,-102.10387420654297,-0.46880659461021423,0.008610844612121582,3.145798921585083,-0.07236447185277939,0.0072545683942735195,2.6618523597717285,-0.05410454049706459,-0.06924619525671005,7.058552000671625e-05,-0.00011732264829333872,-1.2648006677627563,89.84326171875,-0.0003357215609867126,0.699999988079071,1.1795642507195225e-07,0.0,False,False,False,1
17234848.4429454,-85.14286804199219,-101.84524536132812,-0.474743515253067,0.009177235886454582,3.3526418209075928,-0.07693023234605789,0.007143855094909668,2.608895778656006,-0.057587631046772,-0.04988329857587814,-0.0002431905159028247,-9.463066817261279e-05,-1.2694042921066284,89.84324645996094,-0.0003357221430633217,0.699999988079071,1.1795642507195225e-07,0.0,False,False,False,1
17234848.4449993,-85.14282989501953,-101.82950592041016,-0.4750794470310211,0.00921031553298235,3.364809513092041,-0.07206026464700699,0.007068750448524952,2.600099802017212,1.040657639503479,-0.046724144369363785,-4.523045390669722e-06,-0.0001002531498670578,-1.2696160078048706,89.84326171875,-0.00033572217216715217,0.699999988079071,1.1795642507195225e-07,0.0,False,False,False,1
17234848.4529365,-85.14276123046875,-101.80352020263672,-0.47565603256225586,0.009263402782380581,3.3844494819641113,-0.0753592699766159,0.0069138421677052975,2.5578203201293945,-0.4296474754810333,-0.0464782752096653,-0.0001317489513894543,-7.247344183269888e-05,-1.2699916362762451,89.84327697753906,-0.0003357222012709826,0.699999988079071,1.1910784678548225e-06,0.0,False,False,False,1
17234848.465138,-85.14264678955078,-101.7625961303711,-0.4765506982803345,0.00934714823961258,3.4152309894561768,-0.07510016113519669,0.00697292061522603,2.5629689693450928,0.021574249491095543,-0.04373447224497795,4.3537034798646346e-05,-5.24106108059641e-05,-1.2705107927322388,89.84330749511719,-0.0003356689412612468,0.699999988079071,1.1920320730496314e-06,0.0,False,False,False,1
17234848.4835638,-85.14247131347656,-101.69891357421875,-0.4780111312866211,0.009475653991103172,3.462231159210205,-0.07962173968553543,0.006962514482438564,2.5464959144592285,-0.24498169124126434,-0.04127649962902069,0.0001902857911773026,-3.748017115867697e-05,-1.2712688446044922,89.84329986572266,-0.000335775752319023,0.699999988079071,1.1938202533201547e-06,0.0,False,False,False,1
17234848.5030993,-85.14227294921875,-101.63077545166016,-0.479583203792572,0.009611662477254868,3.51167631149292,-0.08117366582155228,0.006985038984566927,2.5393733978271484,-0.07970285415649414,-0.0379214733839035,0.00029777130112051964,-8.257792796939611e-05,-1.272033929824829,89.8432846069336,-0.00033577586873434484,0.699999988079071,1.2105581959076517e-07,0.0,False,False,False,1
17234848.5241396,-85.1420669555664,-101.55714416503906,-0.4812192916870117,0.009754795581102371,3.564248561859131,-0.0796499103307724,0.006893694866448641,2.5320281982421875,0.07338836789131165,-0.03374374657869339,-0.00039916709647513926,-3.0903913284419104e-05,-1.272757887840271,89.8432846069336,-0.00033572257962077856,0.699999988079071,1.1960851225012448e-06,0.0,False,False,False,1
17234848.5434167,-85.14187622070312,-101.48658752441406,-0.4828561544418335,0.009890039451420307,3.613518238067627,-0.08391302078962326,0.006902697961777449,2.514669895172119,-0.21758446097373962,-0.031596019864082336,0.00023611652432009578,-3.2844345696503296e-05,-1.273406744003296,89.84326934814453,-0.0003356692614033818,0.699999988079071,1.1979924465777003e-06,0.0,False,False,False,1
17234848.5630853,-85.14167785644531,-101.4147720336914,-0.48451563715934753,0.01002504676580429,3.662903070449829,-0.08471889048814774,0.006861697882413864,2.5099661350250244,-0.04095803573727608,-0.029031744226813316,0.00010010569531004876,-2.4709244826226495e-05,-1.2739872932434082,89.84327697753906,-0.0003356693487148732,0.699999988079071,1.2000190281469258e-06,0.0,False,False,False,1
17234848.5830074,-85.1414794921875,-101.3419189453125,-0.4861932694911957,0.01015821099281311,3.7121522426605225,-0.0855713039636612,0.00676307175308466,2.5012400150299072,-0.043291907757520676,-0.02622164599597454,9.258146747015417e-05,-2.231709731859155e-05,-1.2745064496994019,89.8432846069336,-0.00033566943602636456,0.699999988079071,1.2015686934319092e-06,0.0,False,False,False,1
17234848.6032251,-85.14128875732422,-101.26764678955078,-0.48790058493614197,0.010294744744896889,3.761547088623047,-0.08653578907251358,0.006890980526804924,2.493001937866211,-0.04867842420935631,-0.023933423683047295,0.00024368321464862674,-2.4183758796425536e-05,-1.2749913930892944,89.84329986572266,-0.00033572287065908313,0.699999988079071,1.2031183587168925e-06,0.0,False,False,False,1
17234848.6234687,-85.14108276367188,-101.19107055664062,-0.4895932674407959,0.010433471761643887,3.811764717102051,-0.08470003306865692,0.006874924525618553,2.4886457920074463,0.09097494930028915,-0.021358009427785873,0.0003239512734580785,-7.767682836856693e-05,-1.2754489183425903,89.84330749511719,-0.00033572292886674404,0.699999988079071,1.3035399604177655e-07,0.0,False,False,False,1
17234848.6425731,-85.140869140625,-101.1158218383789,-0.49133142828941345,0.010565738193690777,3.860136032104492,-0.08919717371463776,0.006763020996004343,2.4733123779296875,-0.22994689643383026,-0.02021738328039646,0.00038372818380594254,-4.840965993935242e-05,-1.2758382558822632,89.84330749511719,-0.0003357229579705745,0.699999988079071,1.2047872814946459e-06,0.0,False,False,False,1
17234848.7378423,-85.14063262939453,-101.03498840332031,-0.49313387274742126,0.01070626825094223,3.9114880561828613,-0.08756627887487411,0.006770184263586998,2.473938226699829,0.07857009023427963,-0.017676295712590218,3.591717540984973e-05,-2.675237919902429e-05,-1.2762140035629272,89.84331512451172,-0.0003357230161782354,0.699999988079071,1.2064562042723992e-06,0.0,False,False,False,1
17234848.7428374,-85.1397705078125,-100.72425842285156,-0.5002928376197815,0.011224815621972084,4.101246356964111,-0.09415191411972046,0.006705607753247023,2.453864097595215,-0.08516230434179306,-0.01308505330234766,0.00022121841902844608,-2.151139051420614e-05,-1.2773683071136475,89.84333038330078,-0.0003357231616973877,0.699999988079071,1.2133702966821147e-06,0.0,False,False,False,1
17234848.7449985,-85.13971710205078,-100.7037124633789,-0.5007411241531372,0.011259832419455051,4.113549709320068,-0.08981886506080627,0.007010229397565126,2.4630842208862305,0.8674598932266235,-0.012193297035992146,-0.00024800043320283294,-6.832905637566e-05,-1.2773683071136475,89.84333038330078,-0.0003357231616973877,0.6382207870483398,-2.2436991002905415e-06,0.0,False,False,False,1
17234848.7449985,-85.13971710205078,-100.7037124633789,-0.5007411241531372,0.011259832419455051,4.113549709320068,-0.08981886506080627,0.007010229397565126,2.4630842208862305,0.8674598932266235,-0.012193297035992146,-0.00024800043320283294,-6.832905637566e-05,-1.2773683071136475,89.84333038330078,-0.0003357231616973877,0.6382207870483398,-2.2436991002905415e-06,0.0,False,False,False,1
17234848.7658826,-85.13948059082031,-100.6197280883789,-0.5026167631149292,0.01139255240559578,4.162195205688477,-0.09240678697824478,0.006538098212331533,2.393847942352295,0.09289241582155228,-0.01227721106261015,0.000246585113927722,-4.451927452464588e-05,-1.2775253057479858,89.84333038330078,-0.00033572319080121815,0.632416307926178,1.2142046443841537e-06,0.0,False,False,False,1
17234848.7841588,-85.13926696777344,-100.54254913330078,-0.5043924450874329,0.011510895565152168,4.20516300201416,-0.0967683494091034,0.006430924404412508,2.3349270820617676,-0.2370130866765976,-0.013602601364254951,8.87595015228726e-05,-7.715892570558935e-05,-1.277771234512329,89.84333038330078,-0.0003356698725838214,0.6226046681404114,1.4132108105968655e-07,0.0,False,False,False,1
17234848.8055932,-85.13903045654297,-100.45344543457031,-0.5063941478729248,0.011640978045761585,4.252924919128418,-0.09582769870758057,0.006185832433402538,2.2712297439575195,0.044730909168720245,-0.015372500754892826,0.00012672222510445863,-3.711686440510675e-05,-1.2780717611312866,89.84333038330078,-0.0003357232781127095,0.6078429222106934,1.2161119684606092e-06,0.0,False,False,False,1
17234848.8259205,-85.1387939453125,-100.36589813232422,-0.5083680152893066,0.01176371332257986,4.297693252563477,-0.0971529483795166,0.0060041616670787334,2.190049409866333,-0.06483069807291031,-0.017804475501179695,-5.5202697694767267e-05,-6.888562347739935e-05,-1.2784063816070557,89.84333801269531,-0.00033572330721654,0.5914788246154785,1.432284051361421e-07,0.0,False,False,False,1
17234848.8460162,-85.13856506347656,-100.27947998046875,-0.5103872418403625,0.011879305355250835,4.339719295501709,-0.10133787244558334,0.0057912422344088554,2.105534315109253,-0.2096676379442215,-0.020895633846521378,0.00017537001986056566,-8.788940613158047e-05,-1.2788094282150269,89.84333038330078,-0.00033572339452803135,0.5761231780052185,1.432284051361421e-07,0.0,False,False,False,1
17234848.8658003,-85.1383285522461,-100.19308471679688,-0.5123905539512634,0.011987728998064995,4.3797760009765625,-0.10156086832284927,0.005483807995915413,2.0259721279144287,-0.011278596706688404,-0.023216966539621353,-0.00017232735990546644,-2.812105776683893e-05,-1.2792670726776123,89.84333801269531,-0.00033567004720680416,0.5616851449012756,1.2170656873422558e-06,0.0,False,False,False,1
17234848.8658003,-85.1383285522461,-100.19308471679688,-0.5123905539512634,0.011987728998064995,4.3797760009765625,-0.10156086832284927,0.005483807995915413,2.0259721279144287,-0.011278596706688404,-0.023216966539621353,-0.00017232735990546644,-2.812105776683893e-05,-1.2792670726776123,89.84333801269531,-0.00033567004720680416,0.5616851449012756,1.2170656873422558e-06,0.0,False,False,False,1
17234848.9129379,-85.13777160644531,-99.98253631591797,-0.5171752572059631,0.012232291512191296,4.468997478485107,-0.10276062786579132,0.005015580914914608,1.8314062356948853,-0.12818825244903564,-0.030192285776138306,8.708906534593552e-05,1.136418359237723e-05,-1.2805442810058594,89.84333038330078,-0.00033567019272595644,0.5344432592391968,1.2200458741062903e-06,0.0,False,False,False,1
17234848.9256928,-85.13761901855469,-99.92463684082031,-0.5184704065322876,0.012293479405343533,4.491584777832031,-0.10077350586652756,0.004741116426885128,1.7501667737960815,0.15397125482559204,-0.031182430684566498,0.0004932095180265605,8.345130481757224e-06,-1.2809404134750366,89.84333038330078,-0.0003357770328875631,0.5173616409301758,1.2209994793010992e-06,0.0,False,False,False,1
17234848.9468143,-85.1373519897461,-99.8295669555664,-0.520616888999939,0.01238969061523676,4.5267014503479,-0.10254572331905365,0.004569409415125847,1.6678146123886108,-0.08416885882616043,-0.034265510737895966,2.7824153221445158e-05,2.7281916118226945e-05,-1.2816439867019653,89.84333038330078,-0.0003357237146701664,0.5096349120140076,1.223145204676257e-06,0.0,False,False,False,1
17234849.0436812,-85.1370849609375,-99.73445892333984,-0.5227707028388977,0.012479996308684349,4.559645175933838,-0.10357148200273514,0.0043188417330384254,1.5755234956741333,-0.04905659332871437,-0.03683271259069443,0.0003191544092260301,2.7917745683225803e-05,-1.2824089527130127,89.84333038330078,-0.00033567045466043055,0.49758416414260864,1.2248141274540103e-06,0.0,False,False,False,1
17234849.0483472,-85.13607025146484,-99.3709716796875,-0.5311803221702576,0.012778726406395435,4.6691999435424805,-0.1074773445725441,0.003799235448241234,1.3933124542236328,-0.04967457801103592,-0.04128110408782959,0.0003784805303439498,4.613379132933915e-05,-1.2855849266052246,89.8433609008789,-0.0003356708912178874,0.49758416414260864,1.2304172969379579e-06,0.0,False,False,False,1
17234849.0504746,-85.13601684570312,-99.34944915771484,-0.5316510200500488,0.012794937938451767,4.675178050994873,-0.10247329622507095,0.003520878730341792,1.2983468770980835,1.0867972373962402,-0.0392213873565197,0.0002989546919707209,4.885713860858232e-05,-1.2857625484466553,89.8433609008789,-0.0003357776440680027,0.49758416414260864,1.2304172969379579e-06,0.0,False,False,False,1
17234849.0616759,-85.13587951660156,-99.29914855957031,-0.5327619910240173,0.012831212021410465,4.688553810119629,-0.10390500724315643,0.003377820597961545,1.2455425262451172,-0.13332006335258484,-0.039890121668577194,-0.00010345773625886068,5.9894955484196544e-05,-1.2861859798431396,89.84337615966797,-0.00033572432585060596,0.44669079780578613,1.2310133570281323e-06,0.0,False,False,False,1
17234849.0719841,-85.1357421875,-99.25090789794922,-0.5338310599327087,0.012865296564996243,4.700870513916016,-0.10455544292926788,0.0033191372640430927,1.199394941329956,-0.06333912909030914,-0.04029246047139168,-6.012461017235182e-05,2.7032474463339895e-05,-1.2865958213806152,89.8434066772461,-0.00033577776048332453,0.44209516048431396,1.5812976528195577e-07,0.0,False,False,False,1
17234849.0911549,-85.13548278808594,-99.16036987304688,-0.5359252691268921,0.012923936359584332,4.722565174102783,-0.10935040563344955,0.003054823726415634,1.1301772594451904,-0.24979224801063538,-0.04248978570103645,0.00035697277053259313,4.008942414657213e-05,-1.2874155044555664,89.8434066772461,-0.0003357245004735887,0.4378683567047119,1.2325631359999534e-06,0.0,False,False,False,1
17234849.11137,-85.13522338867188,-99.06523895263672,-0.5380602478981018,0.012981177307665348,4.743724822998047,-0.10691472142934799,0.002850304124876857,1.053641438484192,0.12128452211618423,-0.0425405353307724,-0.0001211017879541032,6.514968845294788e-05,-1.2882623672485352,89.8434066772461,-0.00033572461688891053,0.43039470911026,1.2343514299573144e-06,0.0,False,False,False,1
17234849.1315494,-85.13495635986328,-98.96998596191406,-0.540208101272583,0.013033411465585232,4.763142108917236,-0.10780160874128342,0.002608200069516897,0.9695602655410767,-0.04428480565547943,-0.043620504438877106,-7.737361011095345e-05,7.364647899521515e-05,-1.2891230583190918,89.8434066772461,-0.00033577810972929,0.4231609106063843,1.2362588677206077e-06,0.0,False,False,False,1
17234849.1519955,-85.13469696044922,-98.87305450439453,-0.5424032211303711,0.013082407414913177,4.781271934509277,-0.1086198091506958,0.0024132963735610247,0.8929848670959473,-0.04030047357082367,-0.044253285974264145,0.000138751624035649,7.575585186714306e-05,-1.290010929107666,89.8434066772461,-0.0003357248497195542,0.41649848222732544,1.238166305483901e-06,0.0,False,False,False,1
17234849.1519955,-85.13442993164062,-98.77720642089844,-0.5445770025253296,0.013129226863384247,4.797690391540527,-0.10916534811258316,0.0023409605491906404,0.8209187388420105,-0.027276810258626938,-0.04473075643181801,0.00020495540229603648,2.296642924193293e-05,-1.2908920049667358,89.8434066772461,-0.00033567158970981836,0.41027766466140747,1.6528275637028855e-07,0.0,False,False,False,1
17234849.1926259,-85.13417053222656,-98.67840576171875,-0.5468255281448364,0.013172278180718422,4.813155174255371,-0.10984305292367935,0.0020948019810020924,0.7524893283843994,-0.0329759307205677,-0.04478169605135918,-5.666180368280038e-05,6.3349257288791705e-06,-1.2918072938919067,89.8434066772461,-0.00033572508255019784,0.4046456813812256,1.6528275637028855e-07,0.0,False,False,False,1
17234849.2124152,-85.13390350341797,-98.58193969726562,-0.549019992351532,0.013211109675467014,4.826930046081543,-0.11012245714664459,0.0019412931287661195,0.6886436939239502,-0.01396818459033966,-0.04465460032224655,0.0005094259395264089,-1.4867847312416416e-05,-1.292695164680481,89.8434066772461,-0.0003357251698616892,0.39933955669403076,1.6528275637028855e-07,0.0,False,False,False,1
17234849.2324494,-85.1336441040039,-98.48503875732422,-0.5512275099754333,0.013245885260403156,4.839540958404541,-0.11053472012281418,0.0017350836424157023,0.6292054653167725,-0.020569337531924248,-0.04420093074440956,-1.847977728175465e-05,-5.545909061765997e-06,-1.2935762405395508,89.84342193603516,-0.0003357253153808415,0.3946157693862915,1.6528275637028855e-07,0.0,False,False,False,1
17234849.2518368,-85.13338470458984,-98.38938903808594,-0.5534693002700806,0.013276413083076477,4.850821495056152,-0.11371704190969467,0.0015472793020308018,0.5717453956604004,-0.16129355132579803,-0.044735878705978394,-2.2161248125485145e-05,-5.139056611369597e-06,-1.2944642305374146,89.84342193603516,-0.0003357254317961633,0.39028990268707275,1.6528275637028855e-07,0.0,False,False,False,1
17234849.2518368,-85.13338470458984,-98.38938903808594,-0.5534693002700806,0.013276413083076477,4.850821495056152,-0.11371704190969467,0.0015472793020308018,0.5717453956604004,-0.16129355132579803,-0.044735878705978394,-2.2161248125485145e-05,-5.139056611369597e-06,-1.2953521013259888,89.84342193603516,-0.00033577889553271234,0.3863980770111084,1.6528275637028855e-07,0.0,False,False,False,1
17234849.3550955,-85.13202667236328,-97.89855194091797,-0.5647777915000916,0.013398819603025913,4.89532470703125,-0.11259087175130844,0.0011634038528427482,0.42040741443634033,-0.025860220193862915,-0.03778993338346481,0.00017919630045071244,1.0267555126119987e-06,-1.2985759973526,89.8434066772461,-0.00033572595566511154,0.3863980770111084,1.6528275637028855e-07,0.0,False,False,False,1
17234849.357338,-85.1319580078125,-97.8731460571289,-0.5653353333473206,0.013404092751443386,4.897271156311035,-0.10767694562673569,0.0010163732804358006,0.37516847252845764,0.9471349716186523,-0.0357760488986969,2.3932552721817046e-05,5.0195590119983535e-06,-1.2987604141235352,89.84341430664062,-0.000335725984768942,0.3863980770111084,1.6528275637028855e-07,0.0,False,False,False,1
17234849.3668009,-85.1318359375,-97.82749938964844,-0.5663770437240601,0.01341281458735466,4.900385856628418,-0.11203992366790771,0.0009362918208353221,0.33436405658721924,-0.4683670401573181,-0.036540281027555466,0.00013369186490308493,3.7326540223148186e-06,-1.2990950345993042,89.84341430664062,-0.0003357260429766029,0.37052351236343384,1.6540197123049438e-07,0.0,False,False,False,1
17234849.3779787,-85.13169860839844,-97.7742691040039,-0.5675519108772278,0.013422902673482895,4.903983116149902,-0.10859588533639908,0.000929212081246078,0.33134302496910095,0.31722983717918396,-0.0347047857940197,0.00012280540249776095,4.900383828498889e-06,-1.2994638681411743,89.84342193603516,-0.0003357794776093215,0.36942243576049805,1.6540197123049438e-07,0.0,False,False,False,1
17234849.397712998,-85.13142395019531,-97.67778015136719,-0.5697746276855469,0.013437100686132908,4.909739971160889,-0.11320941895246506,0.0007222437998279929,0.29284751415252686,-0.23468749225139618,-0.034282997250556946,5.071931809652597e-06,6.71314774081111e-05,-1.300133228302002,89.84342193603516,-0.00033572615939192474,0.3682158589363098,1.239954599441262e-06,0.0,False,False,False,1
17234849.4173257,-85.13114929199219,-97.5806655883789,-0.572006344795227,0.013451091945171356,4.914982318878174,-0.11305104196071625,0.0007078519556671381,0.2652231752872467,0.008012678474187851,-0.032862160354852676,0.00033859448740258813,8.928855822887272e-05,-1.3007820844650269,89.84342956542969,-0.0003357262467034161,0.36620694398880005,1.241742893398623e-06,0.0,False,False,False,1
17234849.4380528,-85.13088989257812,-97.4808578491211,-0.5742315053939819,0.013463405892252922,4.919798851013184,-0.11014419049024582,0.000606804562266916,0.23734824359416962,0.14324332773685455,-0.030940838158130646,-0.00022367836209014058,0.00011774306040024385,-1.3014241456985474,89.84343719482422,-0.00033572636311873794,0.36441123485565186,1.2435310736691463e-06,0.0,False,False,False,1
17234849.4575202,-85.130615234375,-97.3836669921875,-0.5764728784561157,0.013475866988301277,4.923815727233887,-0.11363274604082108,0.0006311684846878052,0.20345929265022278,-0.17669925093650818,-0.030370134860277176,2.1951149392407387e-05,3.447680137469433e-05,-1.3020321130752563,89.84344482421875,-0.00033572642132639885,0.36278289556503296,-3.664499956812506e-07,0.0,False,False,False,1
17234849.4774369,-85.13034057617188,-97.28564453125,-0.578728437423706,0.013485695235431194,4.9274492263793945,-0.11344165354967117,0.0004938817000947893,0.1825878769159317,0.009602637030184269,-0.029024763032794,3.46660781360697e-05,2.5862313123070635e-05,-1.3026126623153687,89.84346008300781,-0.0003357265086378902,0.36137884855270386,1.6993220697258948e-07,0.0,False,False,False,1
17234849.4971194,-85.13006591796875,-97.18805694580078,-0.5809661149978638,0.013493766076862812,4.930617809295654,-0.11316891759634018,0.00040770063060335815,0.1600617915391922,0.013777327723801136,-0.027574237436056137,-0.00021079758880659938,2.7870863050338812e-05,-1.3031589984893799,89.84346771240234,-0.00033572656684555113,0.36013489961624146,1.6993220697258948e-07,0.0,False,False,False,1
17234849.5173847,-85.12980651855469,-97.08939361572266,-0.5831608772277832,0.013503912836313248,4.933460235595703,-0.11019371449947357,0.0005072695203125477,0.14210213720798492,0.14874008297920227,-0.025711243972182274,0.00014060708053875715,-3.905469202436507e-05,-1.303684949874878,89.84346771240234,-0.00033578003058210015,0.3590509295463562,-9.047396360983839e-07,0.0,False,False,False,1
17234849.5374203,-85.1295394897461,-96.99044799804688,-0.5853784084320068,0.01350912544876337,4.93585729598999,-0.11097905039787292,0.0002599482540972531,0.11953923106193542,-0.039163991808891296,-0.024322325363755226,-1.5059576071507763e-05,5.208662696531974e-05,-1.3041698932647705,89.84346008300781,-0.0003357267123647034,0.3580998182296753,1.2429350135789718e-06,0.0,False,False,False,1
17234849.5578303,-85.1292724609375,-96.88885498046875,-0.5876702070236206,0.013515555299818516,4.937972068786621,-0.11170497536659241,0.0003125018556602299,0.10278160870075226,-0.03528120741248131,-0.02338920533657074,0.0001581627584528178,3.315357389510609e-05,-1.3046616315841675,89.84346771240234,-0.00033567342325113714,0.35727202892303467,1.7017063669300114e-07,0.0,False,False,False,1
17234849.5578303,-85.1292724609375,-96.88885498046875,-0.5876702070236206,0.013515555299818516,4.937972068786621,-0.11170497536659241,0.0003125018556602299,0.10278160870075226,-0.03528120741248131,-0.02338920533657074,0.0001581627584528178,3.315357389510609e-05,-1.3050851821899414,89.84347534179688,-0.00033572682878002524,0.35654157400131226,1.244961708835035e-06,0.0,False,False,False,1
17234849.6642957,-85.12779998779297,-96.36083984375,-0.5998275279998779,0.013532244600355625,4.944873332977295,-0.11135002225637436,0.00022459853789769113,0.04731300100684166,0.2536381185054779,-0.016396373510360718,1.4902756447554566e-05,0.00010819996532518417,-1.3067312240600586,89.843505859375,-0.0003358338144607842,0.35594063997268677,1.7899266424592497e-07,0.0,False,False,False,1
17234849.6642957,-85.12779998779297,-96.36083984375,-0.5998275279998779,0.013532244600355625,4.944873332977295,-0.11135002225637436,0.00022459853789769113,0.04731300100684166,0.2536381185054779,-0.016396373510360718,1.4902756447554566e-05,0.00010819996532518417,-1.3067312240600586,89.843505859375,-0.0003358338144607842,0.35594063997268677,1.7899266424592497e-07,0.0,False,False,False,1
17234849.6642957,-85.1276626586914,-96.3094711303711,-0.6009594202041626,0.013535024598240852,4.945313453674316,-0.1092064380645752,0.00026759051252156496,0.042364105582237244,0.20633210241794586,-0.01532764546573162,0.00015567013178952038,4.493246888159774e-05,-1.3068815469741821,89.8435287475586,-0.00033583384356461465,0.3541787266731262,-8.942486147134332e-07,0.0,False,False,False,1
17234849.6863451,-85.12751007080078,-96.2542724609375,-0.6021853685379028,0.013536496087908745,4.945667743682861,-0.11009164899587631,0.00013185512216296047,0.03174670785665512,-0.07932070642709732,-0.014786395244300365,0.00031011010287329555,3.505537097225897e-05,-1.3070317506790161,89.84356689453125,-0.000335780467139557,0.3540443181991577,1.7851580480510165e-07,0.0,False,False,False,1
17234849.7023504,-85.1272964477539,-96.17607879638672,-0.6039620041847229,0.01353802066296339,4.94606876373291,-0.11251779645681381,9.64340943028219e-05,0.025365760549902916,-0.15346133708953857,-0.01431585568934679,-0.00016908737597987056,-7.770763659209479e-06,-1.3072503805160522,89.84356689453125,-0.00033567374339327216,0.3539161682128906,-8.95321534244431e-07,0.0,False,False,False,1
17234849.7023504,-85.12702178955078,-96.0797119140625,-0.6061927080154419,0.013540299609303474,4.946469783782959,-0.1144646406173706,0.00011698003072524443,0.02058466151356697,-0.09993297606706619,-0.013377069495618343,-0.00015688220446463674,-4.4919543142896146e-05,-1.307523488998413,89.84357452392578,-0.00033572714892216027,0.35375988483428955,-8.968713700596709e-07,0.0,False,False,False,1
17234849.7430972,-85.12672424316406,-95.97531127929688,-0.6085445284843445,0.013540784828364849,4.946873188018799,-0.11166449636220932,2.298603067174554e-05,0.019110260531306267,0.13264977931976318,-0.012213179841637611,-1.198699465021491e-06,-7.677157555008307e-06,-1.3078035116195679,89.84358215332031,-0.00033567383070476353,0.353607177734375,1.7601225010821508e-07,0.0,False,False,False,1
17234849.7430972,-85.12672424316406,-95.97531127929688,-0.6085445284843445,0.013540784828364849,4.946873188018799,-0.11166449636220932,2.298603067174554e-05,0.019110260531306267,0.13264977931976318,-0.012213179841637611,-1.198699465021491e-06,-7.677157555008307e-06,-1.3078035116195679,89.84358215332031,-0.00033567383070476353,0.353607177734375,1.7601225010821508e-07,0.0,False,False,False,1
17234849.762191,-85.12644958496094,-95.87863159179688,-0.6107844114303589,0.013541155494749546,4.947169303894043,-0.11426003277301788,2.4456408937112428e-05,0.007069080136716366,0.015520159155130386,-0.010723715648055077,-0.00012514660193119198,2.3202344891615212e-05,-1.3082270622253418,89.84358978271484,-0.0003357806126587093,0.3534144163131714,1.7601225010821508e-07,0.0,False,False,False,1
17234849.7817812,-85.12618255615234,-95.7808609008789,-0.6130436062812805,0.013541155494749546,4.947169303894043,-0.11426003277301788,2.4456408937112428e-05,0.007069080136716366,0.015520159155130386,-0.010723715648055077,-0.00012514660193119198,2.3202344891615212e-05,-1.3082270622253418,89.84358978271484,-0.0003357806126587093,0.3534144163131714,1.7601225010821508e-07,0.0,False,False,False,1
17234849.8225014,-85.12565612792969,-95.581787109375,-0.6175147294998169,0.01354366634041071,4.947251319885254,-0.11169115453958511,3.689329241751693e-05,-0.0016785294283181429,-0.02991469018161297,-0.009076596237719059,-0.00013700280396733433,-5.5787320889066905e-05,-1.308588981628418,89.84358215332031,-0.000335727323545143,0.3533540964126587,-9.006863024296763e-07,0.0,False,False,False,1
17234849.8225014,-85.12565612792969,-95.581787109375,-0.6175147294998169,0.01354366634041071,4.947251319885254,-0.11169115453958511,3.689329241751693e-05,-0.0016785294283181429,-0.02991469018161297,-0.009076596237719059,-0.00013700280396733433,-5.5787320889066905e-05,-1.308588981628418,89.84358215332031,-0.000335727323545143,0.3533540964126587,-9.006863024296763e-07,0.0,False,False,False,1
